{
"type": "FeatureCollection",
"name": "onsens",
"features": [
{ "type": "Feature", "properties": { "id": "node/257072555", "amenity": "public_bath", "name": "湯快爽快みはま店" }, "geometry": { "type": "Point", "coordinates": [ 140.087273900000014, 35.6212706 ] } },
{ "type": "Feature", "properties": { "id": "node/263707662", "amenity": "public_bath", "name": "梅開湯" }, "geometry": { "type": "Point", "coordinates": [ 140.121471500000013, 35.5935701 ] } },
{ "type": "Feature", "properties": { "id": "node/300782464", "amenity": "public_bath", "name": "街道の湯" }, "geometry": { "type": "Point", "coordinates": [ 138.7772283, 36.9006 ] } },
{ "type": "Feature", "properties": { "id": "node/349080480", "amenity": "public_bath", "name": "清水湯" }, "geometry": { "type": "Point", "coordinates": [ 139.6676693, 35.6494664 ] } },
{ "type": "Feature", "properties": { "id": "node/352889243", "amenity": "public_bath", "name": "下ん湯" }, "geometry": { "type": "Point", "coordinates": [ 131.3690882, 33.2672661 ] } },
{ "type": "Feature", "properties": { "id": "node/391117006", "amenity": "public_bath", "name": "大和湯" }, "geometry": { "type": "Point", "coordinates": [ 140.1217062, 35.5928329 ] } },
{ "type": "Feature", "properties": { "id": "node/508048695", "amenity": "public_bath", "name": "梅の湯" }, "geometry": { "type": "Point", "coordinates": [ 139.7109319, 35.7557268 ] } },
{ "type": "Feature", "properties": { "id": "node/567878684", "amenity": "public_bath", "name": null }, "geometry": { "type": "Point", "coordinates": [ 139.5348071, 35.6952275 ] } },
{ "type": "Feature", "properties": { "id": "node/601456865", "amenity": "public_bath", "name": "松原湯" }, "geometry": { "type": "Point", "coordinates": [ 139.6481492, 35.667437 ] } },
{ "type": "Feature", "properties": { "id": "node/707419943", "amenity": "public_bath", "name": "道の温泉駅かれん" }, "geometry": { "type": "Point", "coordinates": [ 137.1472386, 35.6682915 ] } },
{ "type": "Feature", "properties": { "id": "node/759354840", "amenity": "public_bath", "name": "湯パーク" }, "geometry": { "type": "Point", "coordinates": [ 139.6135351, 35.6462596 ] } },
{ "type": "Feature", "properties": { "id": "node/873032027", "amenity": "public_bath", "bath:type": "foot_bath", "name": "天然温泉足湯おやっとさぁ" }, "geometry": { "type": "Point", "coordinates": [ 130.715595799999988, 31.8012503 ] } },
{ "type": "Feature", "properties": { "id": "node/892741840", "amenity": "public_bath", "name": "直島銭湯 (Naoshima Bath)" }, "geometry": { "type": "Point", "coordinates": [ 133.975132300000013, 34.4579858 ] } },
{ "type": "Feature", "properties": { "id": "node/897445502", "amenity": "public_bath", "name": "月見湯温泉" }, "geometry": { "type": "Point", "coordinates": [ 139.6359584, 35.6654718 ] } },
{ "type": "Feature", "properties": { "id": "node/941284848", "amenity": "public_bath", "name": "杭瀬温泉" }, "geometry": { "type": "Point", "coordinates": [ 135.4345561, 34.717565 ] } },
{ "type": "Feature", "properties": { "id": "node/1148820986", "amenity": "public_bath", "name": "浅草ROX;まつり湯" }, "geometry": { "type": "Point", "coordinates": [ 139.7930044, 35.7128418 ] } },
{ "type": "Feature", "properties": { "id": "node/1162638594", "amenity": "public_bath", "name": null }, "geometry": { "type": "Point", "coordinates": [ 139.579495400000013, 35.7300864 ] } },
{ "type": "Feature", "properties": { "id": "node/1200299216", "amenity": "public_bath", "name": "東松島市健康増進センター;ゆぷと" }, "geometry": { "type": "Point", "coordinates": [ 141.2094041, 38.4197193 ] } },
{ "type": "Feature", "properties": { "id": "node/1240105735", "amenity": "public_bath", "name": "富士見湯" }, "geometry": { "type": "Point", "coordinates": [ 139.6721354, 35.6470989 ] } },
{ "type": "Feature", "properties": { "id": "node/1279212900", "amenity": "public_bath", "name": "そしがや温泉21" }, "geometry": { "type": "Point", "coordinates": [ 139.6078547, 35.6456524 ] } },
{ "type": "Feature", "properties": { "id": "node/1338007100", "amenity": "public_bath", "name": "田上温泉 (Tagami Onsen)" }, "geometry": { "type": "Point", "coordinates": [ 130.5281354, 31.5780418 ] } },
{ "type": "Feature", "properties": { "id": "node/1364559701", "amenity": "public_bath", "name": "Hebin-Yu" }, "geometry": { "type": "Point", "coordinates": [ 131.4370233, 33.3098946 ] } },
{ "type": "Feature", "properties": { "id": "node/1459985951", "amenity": "public_bath", "name": "千年湯" }, "geometry": { "type": "Point", "coordinates": [ 139.6283187, 35.5829192 ] } },
{ "type": "Feature", "properties": { "id": "node/1467565515", "amenity": "public_bath", "name": "水無海浜温泉" }, "geometry": { "type": "Point", "coordinates": [ 141.1843086, 41.8111255 ] } },
{ "type": "Feature", "properties": { "id": "node/1631280055", "amenity": "public_bath", "bath:type": "onsen", "name": "雙津峡温泉憩の家" }, "geometry": { "type": "Point", "coordinates": [ 131.9894208, 34.3136545 ] } },
{ "type": "Feature", "properties": { "id": "node/1652824261", "amenity": "public_bath", "name": "お湯どころ 野川" }, "geometry": { "type": "Point", "coordinates": [ 139.5830011, 35.6413681 ] } },
{ "type": "Feature", "properties": { "id": "node/1657213967", "amenity": "public_bath", "name": "木浦名水館;唄げんかの湯" }, "geometry": { "type": "Point", "coordinates": [ 131.5459137, 32.82475 ] } },
{ "type": "Feature", "properties": { "id": "node/1683229532", "amenity": "public_bath", "name": "岡の湯" }, "geometry": { "type": "Point", "coordinates": [ 139.657284, 35.5341373 ] } },
{ "type": "Feature", "properties": { "id": "node/1687133972", "amenity": "public_bath", "name": "丸子温泉" }, "geometry": { "type": "Point", "coordinates": [ 139.6622002, 35.5823339 ] } },
{ "type": "Feature", "properties": { "id": "node/1695818744", "amenity": "public_bath", "name": "藤の湯" }, "geometry": { "type": "Point", "coordinates": [ 139.637295200000011, 35.7765131 ] } },
{ "type": "Feature", "properties": { "id": "node/1711476912", "amenity": "public_bath", "name": "よし乃湯" }, "geometry": { "type": "Point", "coordinates": [ 139.4170953, 35.5167268 ] } },
{ "type": "Feature", "properties": { "id": "node/1734851695", "amenity": "public_bath", "name": "金平湯" }, "geometry": { "type": "Point", "coordinates": [ 140.495091800000012, 35.8892791 ] } },
{ "type": "Feature", "properties": { "id": "node/1744076702", "amenity": "public_bath", "name": "Inari-yu" }, "geometry": { "type": "Point", "coordinates": [ 139.7662781, 35.6901091 ] } },
{ "type": "Feature", "properties": { "id": "node/1754092177", "amenity": "public_bath", "name": "鶴の湯" }, "geometry": { "type": "Point", "coordinates": [ 139.6561639, 35.644509 ] } },
{ "type": "Feature", "properties": { "id": "node/1757309619", "amenity": "public_bath", "name": "梅の湯" }, "geometry": { "type": "Point", "coordinates": [ 139.557724799999988, 35.6751878 ] } },
{ "type": "Feature", "properties": { "id": "node/1766503117", "amenity": "public_bath", "name": "湯快爽快くりひら店" }, "geometry": { "type": "Point", "coordinates": [ 139.4835002, 35.6010962 ] } },
{ "type": "Feature", "properties": { "id": "node/1789703595", "amenity": "public_bath", "bath:type": "onsen", "name": "秋川渓谷瀬音の湯" }, "geometry": { "type": "Point", "coordinates": [ 139.1872816, 35.7272085 ] } },
{ "type": "Feature", "properties": { "id": "node/1801368473", "amenity": "public_bath", "name": "鶴の湯" }, "geometry": { "type": "Point", "coordinates": [ 141.882075, 39.275839 ] } },
{ "type": "Feature", "properties": { "id": "node/1834371978", "amenity": "public_bath", "name": "日帰り湯" }, "geometry": { "type": "Point", "coordinates": [ 136.2852977, 35.2184167 ] } },
{ "type": "Feature", "properties": { "id": "node/1865212801", "amenity": "public_bath", "name": "寿湯" }, "geometry": { "type": "Point", "coordinates": [ 139.5674694, 35.6510594 ] } },
{ "type": "Feature", "properties": { "id": "node/1879196018", "amenity": "public_bath", "name": "巣鴨酵素風呂" }, "geometry": { "type": "Point", "coordinates": [ 139.7310286, 35.7386827 ] } },
{ "type": "Feature", "properties": { "id": "node/1894039092", "amenity": "public_bath", "name": "嵐の湯" }, "geometry": { "type": "Point", "coordinates": [ 139.7278168, 35.6601521 ] } },
{ "type": "Feature", "properties": { "id": "node/1934532445", "amenity": "public_bath", "name": null }, "geometry": { "type": "Point", "coordinates": [ 139.7125017, 35.7099901 ] } },
{ "type": "Feature", "properties": { "id": "node/1948726363", "amenity": "public_bath", "name": "浅間温泉 (Asama Onsen)" }, "geometry": { "type": "Point", "coordinates": [ 137.9885874, 36.2626128 ] } },
{ "type": "Feature", "properties": { "id": "node/2004319008", "amenity": "public_bath", "name": "やまとの湯" }, "geometry": { "type": "Point", "coordinates": [ 135.724163299999987, 34.9332128 ] } },
{ "type": "Feature", "properties": { "id": "node/2008177750", "amenity": "public_bath", "name": "仲の湯" }, "geometry": { "type": "Point", "coordinates": [ 140.8917792, 37.0549295 ] } },
{ "type": "Feature", "properties": { "id": "node/2008393718", "amenity": "public_bath", "name": "子持ち湯" }, "geometry": { "type": "Point", "coordinates": [ 139.0925603, 34.9738181 ] } },
{ "type": "Feature", "properties": { "id": "node/2012226376", "amenity": "public_bath", "bath:type": "hot_spring", "name": "シーサイドスパ" }, "geometry": { "type": "Point", "coordinates": [ 139.0943804, 34.9845536 ] } },
{ "type": "Feature", "properties": { "id": "node/2047539959", "amenity": "public_bath", "name": "ニセコ駅前温泉;綺羅乃湯" }, "geometry": { "type": "Point", "coordinates": [ 140.68528, 42.8083243 ] } },
{ "type": "Feature", "properties": { "id": "node/2052520871", "amenity": "public_bath", "bath:type": "onsen", "name": null }, "geometry": { "type": "Point", "coordinates": [ 140.6347558, 42.8436835 ] } },
{ "type": "Feature", "properties": { "id": "node/2068069254", "amenity": "public_bath", "name": "ときわ湯" }, "geometry": { "type": "Point", "coordinates": [ 139.675097599999987, 35.6504342 ] } },
{ "type": "Feature", "properties": { "id": "node/2089616383", "amenity": "public_bath", "name": "ひらきの湯" }, "geometry": { "type": "Point", "coordinates": [ 137.262640800000014, 36.6811834 ] } },
{ "type": "Feature", "properties": { "id": "node/2129185123", "amenity": "public_bath", "name": "富士見湯" }, "geometry": { "type": "Point", "coordinates": [ 139.38083, 35.709693 ] } },
{ "type": "Feature", "properties": { "id": "node/2139880384", "amenity": "public_bath", "name": "和泉湯" }, "geometry": { "type": "Point", "coordinates": [ 139.57494410000001, 35.6279622 ] } },
{ "type": "Feature", "properties": { "id": "node/2154437120", "amenity": "public_bath", "name": "八幡湯" }, "geometry": { "type": "Point", "coordinates": [ 139.7084251, 35.6063098 ] } },
{ "type": "Feature", "properties": { "id": "node/2177251258", "amenity": "public_bath", "name": "海辺の湯" }, "geometry": { "type": "Point", "coordinates": [ 139.81820780000001, 35.1853575 ] } },
{ "type": "Feature", "properties": { "id": "node/2178131580", "amenity": "public_bath", "bath:type": "onsen", "name": "ニセコ五色温泉旅館" }, "geometry": { "type": "Point", "coordinates": [ 140.6374715, 42.8738508 ] } },
{ "type": "Feature", "properties": { "id": "node/2200464031", "amenity": "public_bath", "name": "かねき湯" }, "geometry": { "type": "Point", "coordinates": [ 139.680924800000014, 35.6810464 ] } },
{ "type": "Feature", "properties": { "id": "node/2237716796", "amenity": "public_bath", "name": "汐湯" }, "geometry": { "type": "Point", "coordinates": [ 131.1839625, 33.6059922 ] } },
{ "type": "Feature", "properties": { "id": "node/2242388777", "amenity": "public_bath", "name": "八幡湯" }, "geometry": { "type": "Point", "coordinates": [ 139.6894285, 35.6697106 ] } },
{ "type": "Feature", "properties": { "id": "node/2244582090", "amenity": "public_bath", "name": "観音湯" }, "geometry": { "type": "Point", "coordinates": [ 139.6765202, 35.6790755 ] } },
{ "type": "Feature", "properties": { "id": "node/2264401717", "amenity": "public_bath", "name": "新宮温泉" }, "geometry": { "type": "Point", "coordinates": [ 135.5501798, 34.6892363 ] } },
{ "type": "Feature", "properties": { "id": "node/2265516147", "amenity": "public_bath", "name": "ラドンサウナ石巻" }, "geometry": { "type": "Point", "coordinates": [ 141.3112458, 38.4352851 ] } },
{ "type": "Feature", "properties": { "id": "node/2268044803", "amenity": "public_bath", "name": "不動の湯" }, "geometry": { "type": "Point", "coordinates": [ 135.552704, 34.688679 ] } },
{ "type": "Feature", "properties": { "id": "node/2268209176", "amenity": "public_bath", "name": "長者湯" }, "geometry": { "type": "Point", "coordinates": [ 135.748134, 35.023461 ] } },
{ "type": "Feature", "properties": { "id": "node/2274595229", "amenity": "public_bath", "name": "天神湯" }, "geometry": { "type": "Point", "coordinates": [ 139.67158, 35.706639 ] } },
{ "type": "Feature", "properties": { "id": "node/2282136107", "amenity": "public_bath", "name": "華厳の湯" }, "geometry": { "type": "Point", "coordinates": [ 135.548862899999989, 34.6927274 ] } },
{ "type": "Feature", "properties": { "id": "node/2283186521", "amenity": "public_bath", "name": "松の湯" }, "geometry": { "type": "Point", "coordinates": [ 139.8918964, 35.6627758 ] } },
{ "type": "Feature", "properties": { "id": "node/2284105487", "amenity": "public_bath", "name": "鶴の湯" }, "geometry": { "type": "Point", "coordinates": [ 139.7073805, 35.6797289 ] } },
{ "type": "Feature", "properties": { "id": "node/2286379666", "amenity": "public_bath", "name": "神の湯" }, "geometry": { "type": "Point", "coordinates": [ 140.577237, 38.124205 ] } },
{ "type": "Feature", "properties": { "id": "node/2286379801", "amenity": "public_bath", "name": "足湯" }, "geometry": { "type": "Point", "coordinates": [ 140.577143, 38.124016 ] } },
{ "type": "Feature", "properties": { "id": "node/2286395814", "amenity": "public_bath", "name": "壽の湯" }, "geometry": { "type": "Point", "coordinates": [ 140.578612, 38.123244 ] } },
{ "type": "Feature", "properties": { "id": "node/2287622953", "amenity": "public_bath", "name": "足湯" }, "geometry": { "type": "Point", "coordinates": [ 140.726946, 38.225432 ] } },
{ "type": "Feature", "properties": { "id": "node/2290060752", "amenity": "public_bath", "name": "足湯" }, "geometry": { "type": "Point", "coordinates": [ 140.719127, 38.744539 ] } },
{ "type": "Feature", "properties": { "id": "node/2290259198", "amenity": "public_bath", "name": "ぽっぽの足湯" }, "geometry": { "type": "Point", "coordinates": [ 140.716124799999989, 38.7431511 ] } },
{ "type": "Feature", "properties": { "id": "node/2290280538", "amenity": "public_bath", "name": "ほっとパーク足湯" }, "geometry": { "type": "Point", "coordinates": [ 140.716253, 38.742686 ] } },
{ "type": "Feature", "properties": { "id": "node/2290735004", "amenity": "public_bath", "name": "足湯" }, "geometry": { "type": "Point", "coordinates": [ 140.718012, 38.74447 ] } },
{ "type": "Feature", "properties": { "id": "node/2290739395", "amenity": "public_bath", "name": "足湯" }, "geometry": { "type": "Point", "coordinates": [ 140.727135, 38.748221 ] } },
{ "type": "Feature", "properties": { "id": "node/2330160625", "amenity": "public_bath", "name": "タカラ湯" }, "geometry": { "type": "Point", "coordinates": [ 139.794266099999987, 35.7559386 ] } },
{ "type": "Feature", "properties": { "id": "node/2330160650", "amenity": "public_bath", "name": "大黒湯" }, "geometry": { "type": "Point", "coordinates": [ 139.799913800000013, 35.7534085 ] } },
{ "type": "Feature", "properties": { "id": "node/2338832092", "amenity": "public_bath", "name": "Healthy Bath玉の湯" }, "geometry": { "type": "Point", "coordinates": [ 135.5101558, 34.5952285 ] } },
{ "type": "Feature", "properties": { "id": "node/2393341449", "amenity": "public_bath", "name": "弘法の湯" }, "geometry": { "type": "Point", "coordinates": [ 139.460048, 35.791614 ] } },
{ "type": "Feature", "properties": { "id": "node/2408310492", "amenity": "public_bath", "name": "大正湯" }, "geometry": { "type": "Point", "coordinates": [ 135.756662, 34.982397 ] } },
{ "type": "Feature", "properties": { "id": "node/2417779397", "amenity": "public_bath", "name": "Sukayu Onsen (酸ヶ湯)" }, "geometry": { "type": "Point", "coordinates": [ 140.850765700000011, 40.6502902 ] } },
{ "type": "Feature", "properties": { "id": "node/2433823160", "amenity": "public_bath", "name": "とままえ温泉;ふわっと" }, "geometry": { "type": "Point", "coordinates": [ 141.6565061, 44.3132057 ] } },
{ "type": "Feature", "properties": { "id": "node/2440397986", "amenity": "public_bath", "name": "天然温泉 平和島" }, "geometry": { "type": "Point", "coordinates": [ 139.7399585, 35.5851959 ] } },
{ "type": "Feature", "properties": { "id": "node/2475466155", "amenity": "public_bath", "bath:type": "hot_spring", "name": "おふろの王様" }, "geometry": { "type": "Point", "coordinates": [ 139.464416300000011, 35.4327698 ] } },
{ "type": "Feature", "properties": { "id": "node/2477807466", "amenity": "public_bath", "name": "こみちの湯;ほのか" }, "geometry": { "type": "Point", "coordinates": [ 141.3551096, 43.0574784 ] } },
{ "type": "Feature", "properties": { "id": "node/2484549361", "amenity": "public_bath", "name": "丸駒温泉" }, "geometry": { "type": "Point", "coordinates": [ 141.3104186, 42.7803257 ] } },
{ "type": "Feature", "properties": { "id": "node/2500104110", "amenity": "public_bath", "name": "玉の湯" }, "geometry": { "type": "Point", "coordinates": [ 139.639521699999989, 35.7072199 ] } },
{ "type": "Feature", "properties": { "id": "node/2520776610", "amenity": "public_bath", "bath:type": "onsen", "name": "三条の湯" }, "geometry": { "type": "Point", "coordinates": [ 138.918401499999987, 35.8351982 ] } },
{ "type": "Feature", "properties": { "id": "node/2523407542", "amenity": "public_bath", "name": "岡三沢温泉" }, "geometry": { "type": "Point", "coordinates": [ 141.3775812, 40.6863271 ] } },
{ "type": "Feature", "properties": { "id": "node/2534597262", "amenity": "public_bath", "name": "久が原湯" }, "geometry": { "type": "Point", "coordinates": [ 139.6975876, 35.5822164 ] } },
{ "type": "Feature", "properties": { "id": "node/2541306182", "amenity": "public_bath", "name": "湯花楽" }, "geometry": { "type": "Point", "coordinates": [ 139.5440456, 36.0331484 ] } },
{ "type": "Feature", "properties": { "id": "node/2547890768", "amenity": "public_bath", "name": "美汗" }, "geometry": { "type": "Point", "coordinates": [ 139.3851948, 35.5734082 ] } },
{ "type": "Feature", "properties": { "id": "node/2555538322", "amenity": "public_bath", "name": "松の湯" }, "geometry": { "type": "Point", "coordinates": [ 139.714905, 35.6059054 ] } },
{ "type": "Feature", "properties": { "id": "node/2558151060", "amenity": "public_bath", "name": "岩の湯" }, "geometry": { "type": "Point", "coordinates": [ 139.723439, 35.784519 ] } },
{ "type": "Feature", "properties": { "id": "node/2584332992", "amenity": "public_bath", "name": "燕湯" }, "geometry": { "type": "Point", "coordinates": [ 139.772858, 35.705512 ] } },
{ "type": "Feature", "properties": { "id": "node/2588768966", "amenity": "public_bath", "name": "大盛湯" }, "geometry": { "type": "Point", "coordinates": [ 139.7261603, 35.6048755 ] } },
{ "type": "Feature", "properties": { "id": "node/2598309169", "amenity": "public_bath", "name": "かくのだて温泉" }, "geometry": { "type": "Point", "coordinates": [ 140.562809499999986, 39.5925291 ] } },
{ "type": "Feature", "properties": { "id": "node/2636641616", "amenity": "public_bath", "name": null }, "geometry": { "type": "Point", "coordinates": [ 138.9957995, 34.7437718 ] } },
{ "type": "Feature", "properties": { "id": "node/2636641662", "amenity": "public_bath", "name": "嵐の湯" }, "geometry": { "type": "Point", "coordinates": [ 138.995058300000011, 34.7444587 ] } },
{ "type": "Feature", "properties": { "id": "node/2643845446", "amenity": "public_bath", "name": "中瀬隠居" }, "geometry": { "type": "Point", "coordinates": [ 138.934799, 34.7945376 ] } },
{ "type": "Feature", "properties": { "id": "node/2643897066", "amenity": "public_bath", "name": "河津三郎の足湯" }, "geometry": { "type": "Point", "coordinates": [ 138.9958598, 34.7437092 ] } },
{ "type": "Feature", "properties": { "id": "node/2695871315", "amenity": "public_bath", "name": "風風の湯" }, "geometry": { "type": "Point", "coordinates": [ 135.6800231, 35.0116394 ] } },
{ "type": "Feature", "properties": { "id": "node/2722705337", "amenity": "public_bath", "name": "花の湯" }, "geometry": { "type": "Point", "coordinates": [ 139.6760612, 35.5809415 ] } },
{ "type": "Feature", "properties": { "id": "node/2779384662", "amenity": "public_bath", "name": "鷲の湯" }, "geometry": { "type": "Point", "coordinates": [ 139.6447695, 35.4869809 ] } },
{ "type": "Feature", "properties": { "id": "node/2822838505", "amenity": "public_bath", "name": "つぼ湯" }, "geometry": { "type": "Point", "coordinates": [ 135.7577215, 33.8291909 ] } },
{ "type": "Feature", "properties": { "id": "node/2833711826", "amenity": "public_bath", "name": "石乃湯" }, "geometry": { "type": "Point", "coordinates": [ 139.9173874, 35.7400157 ] } },
{ "type": "Feature", "properties": { "id": "node/2847439495", "amenity": "public_bath", "name": "福徳湯" }, "geometry": { "type": "Point", "coordinates": [ 139.6132201, 35.4313527 ] } },
{ "type": "Feature", "properties": { "id": "node/2866113101", "amenity": "public_bath", "name": "サウナ 天然温泉 中島館" }, "geometry": { "type": "Point", "coordinates": [ 139.601592, 35.424351 ] } },
{ "type": "Feature", "properties": { "id": "node/2886936436", "amenity": "public_bath", "name": "永楽湯" }, "geometry": { "type": "Point", "coordinates": [ 136.8954668, 35.1608391 ] } },
{ "type": "Feature", "properties": { "id": "node/2888880919", "amenity": "public_bath", "name": "松の湯" }, "geometry": { "type": "Point", "coordinates": [ 136.875713100000013, 35.1605668 ] } },
{ "type": "Feature", "properties": { "id": "node/2888880928", "amenity": "public_bath", "name": "地蔵湯" }, "geometry": { "type": "Point", "coordinates": [ 136.8761236, 35.1644736 ] } },
{ "type": "Feature", "properties": { "id": "node/2921394250", "amenity": "public_bath", "bath:type": "onsen", "name": "有馬温泉太閤の湯日帰り温泉" }, "geometry": { "type": "Point", "coordinates": [ 135.2511563, 34.7978125 ] } },
{ "type": "Feature", "properties": { "id": "node/2925668896", "amenity": "public_bath", "name": "金時湯" }, "geometry": { "type": "Point", "coordinates": [ 136.873281, 35.1700742 ] } },
{ "type": "Feature", "properties": { "id": "node/2928687785", "amenity": "public_bath", "name": "竹取亭別館 康貴" }, "geometry": { "type": "Point", "coordinates": [ 135.248919, 34.7973511 ] } },
{ "type": "Feature", "properties": { "id": "node/2964285770", "amenity": "public_bath", "name": "国見温泉" }, "geometry": { "type": "Point", "coordinates": [ 140.792942900000014, 39.7273334 ] } },
{ "type": "Feature", "properties": { "id": "node/2970208333", "amenity": "public_bath", "bath:type": "onsen", "name": "十津川温泉 庵の湯" }, "geometry": { "type": "Point", "coordinates": [ 135.76825740000001, 33.9412426 ] } },
{ "type": "Feature", "properties": { "id": "node/2971197100", "amenity": "public_bath", "name": "リフレッシュ館" }, "geometry": { "type": "Point", "coordinates": [ 141.0008621, 37.2347917 ] } },
{ "type": "Feature", "properties": { "id": "node/2975168907", "amenity": "public_bath", "name": "照の湯" }, "geometry": { "type": "Point", "coordinates": [ 139.7111298, 35.5458195 ] } },
{ "type": "Feature", "properties": { "id": "node/2975866305", "amenity": "public_bath", "name": "広尾湯" }, "geometry": { "type": "Point", "coordinates": [ 139.7218401, 35.6506617 ] } },
{ "type": "Feature", "properties": { "id": "node/2982288862", "amenity": "public_bath", "name": "太平湯" }, "geometry": { "type": "Point", "coordinates": [ 139.721573299999989, 35.5504553 ] } },
{ "type": "Feature", "properties": { "id": "node/2990581133", "amenity": "public_bath", "name": "白山湯" }, "geometry": { "type": "Point", "coordinates": [ 135.7567698, 34.9941961 ] } },
{ "type": "Feature", "properties": { "id": "node/3028996830", "amenity": "public_bath", "name": "第二常磐湯" }, "geometry": { "type": "Point", "coordinates": [ 139.597745300000014, 35.4460369 ] } },
{ "type": "Feature", "properties": { "id": "node/3078012809", "amenity": "public_bath", "name": "ほったらかし温泉" }, "geometry": { "type": "Point", "coordinates": [ 138.652116799999988, 35.7062942 ] } },
{ "type": "Feature", "properties": { "id": "node/3079572083", "amenity": "public_bath", "name": "天然豊浦温泉しおさい" }, "geometry": { "type": "Point", "coordinates": [ 140.7059257, 42.5840784 ] } },
{ "type": "Feature", "properties": { "id": "node/3080124009", "amenity": "public_bath", "bath:type": "onsen", "name": "木林の湯" }, "geometry": { "type": "Point", "coordinates": [ 142.62049, 43.062793 ] } },
{ "type": "Feature", "properties": { "id": "node/3104884043", "amenity": "public_bath", "bath:type": "onsen", "name": "昆布温泉" }, "geometry": { "type": "Point", "coordinates": [ 142.6352105, 42.2199265 ] } },
{ "type": "Feature", "properties": { "id": "node/3104884114", "amenity": "public_bath", "bath:type": "onsen", "name": "大湯沼川天然足湯" }, "geometry": { "type": "Point", "coordinates": [ 141.14302, 42.50213 ] } },
{ "type": "Feature", "properties": { "id": "node/3105244041", "amenity": "public_bath", "name": "八幡温泉" }, "geometry": { "type": "Point", "coordinates": [ 136.8895686, 35.1462833 ] } },
{ "type": "Feature", "properties": { "id": "node/3129179544", "amenity": "public_bath", "bath:type": "onsen", "name": "足湯「親子地蔵の湯」" }, "geometry": { "type": "Point", "coordinates": [ 139.8956111, 37.303395 ] } },
{ "type": "Feature", "properties": { "id": "node/3134799768", "amenity": "public_bath", "name": "調布弁天湯" }, "geometry": { "type": "Point", "coordinates": [ 139.6821702, 35.586275 ] } },
{ "type": "Feature", "properties": { "id": "node/3159204382", "amenity": "public_bath", "name": "亀の湯" }, "geometry": { "type": "Point", "coordinates": [ 139.683329, 35.6133103 ] } },
{ "type": "Feature", "properties": { "id": "node/3159225478", "amenity": "public_bath", "name": "大岡山浴場" }, "geometry": { "type": "Point", "coordinates": [ 139.6842436, 35.6080463 ] } },
{ "type": "Feature", "properties": { "id": "node/3178201161", "amenity": "public_bath", "name": "玉川の湯" }, "geometry": { "type": "Point", "coordinates": [ 139.731340499999988, 36.3771204 ] } },
{ "type": "Feature", "properties": { "id": "node/3210240834", "amenity": "public_bath", "bath:type": "foot_bath", "name": "足湯" }, "geometry": { "type": "Point", "coordinates": [ 130.399619699999988, 33.5877917 ] } },
{ "type": "Feature", "properties": { "id": "node/3218769443", "amenity": "public_bath", "bath:type": "onsen", "name": null }, "geometry": { "type": "Point", "coordinates": [ 140.7358578, 42.8977753 ] } },
{ "type": "Feature", "properties": { "id": "node/3254958504", "amenity": "public_bath", "name": "むろらん温泉;ゆらら" }, "geometry": { "type": "Point", "coordinates": [ 140.9417812, 42.3405655 ] } },
{ "type": "Feature", "properties": { "id": "node/3259183358", "amenity": "public_bath", "bath:type": "onsen", "name": "地鉈温泉" }, "geometry": { "type": "Point", "coordinates": [ 139.2160101, 34.3178786 ] } },
{ "type": "Feature", "properties": { "id": "node/3268414367", "amenity": "public_bath", "name": "戸越銀座温泉" }, "geometry": { "type": "Point", "coordinates": [ 139.718669, 35.6147281 ] } },
{ "type": "Feature", "properties": { "id": "node/3274141044", "amenity": "public_bath", "name": "牟婁の湯会館" }, "geometry": { "type": "Point", "coordinates": [ 135.342042600000013, 33.6772337 ] } },
{ "type": "Feature", "properties": { "id": "node/3276203217", "amenity": "public_bath", "bath:type": "onsen", "name": "露天風呂しらすな" }, "geometry": { "type": "Point", "coordinates": [ 135.3452787, 33.6812562 ] } },
{ "type": "Feature", "properties": { "id": "node/3295720534", "amenity": "public_bath", "name": "港南泉" }, "geometry": { "type": "Point", "coordinates": [ 139.5887806, 35.4006389 ] } },
{ "type": "Feature", "properties": { "id": "node/3303465165", "amenity": "public_bath", "bath:type": "onsen", "name": null }, "geometry": { "type": "Point", "coordinates": [ 140.699199599999986, 42.8608817 ] } },
{ "type": "Feature", "properties": { "id": "node/3326672070", "amenity": "public_bath", "name": "テレビ温泉" }, "geometry": { "type": "Point", "coordinates": [ 136.864663799999988, 35.1594557 ] } },
{ "type": "Feature", "properties": { "id": "node/3349534022", "amenity": "public_bath", "name": "喜多の湯" }, "geometry": { "type": "Point", "coordinates": [ 136.8901509, 35.1534128 ] } },
{ "type": "Feature", "properties": { "id": "node/3380998304", "amenity": "public_bath", "name": "重乃湯" }, "geometry": { "type": "Point", "coordinates": [ 139.7437811, 35.5461694 ] } },
{ "type": "Feature", "properties": { "id": "node/3382168800", "amenity": "public_bath", "name": "入船湯" }, "geometry": { "type": "Point", "coordinates": [ 139.749417099999988, 35.5458351 ] } },
{ "type": "Feature", "properties": { "id": "node/3388744151", "amenity": "public_bath", "name": "武蔵野温泉;なごみの湯" }, "geometry": { "type": "Point", "coordinates": [ 139.6183711, 35.704824 ] } },
{ "type": "Feature", "properties": { "id": "node/3420763658", "amenity": "public_bath", "name": "女川温泉ゆぽっぽ" }, "geometry": { "type": "Point", "coordinates": [ 141.4440051, 38.4468865 ] } },
{ "type": "Feature", "properties": { "id": "node/3420765003", "amenity": "public_bath", "bath:type": "foot_bath", "name": "足湯" }, "geometry": { "type": "Point", "coordinates": [ 141.444032, 38.4467629 ] } },
{ "type": "Feature", "properties": { "id": "node/3436597846", "amenity": "public_bath", "name": "横浜天然温泉くさつ" }, "geometry": { "type": "Point", "coordinates": [ 139.599672, 35.4316704 ] } },
{ "type": "Feature", "properties": { "id": "node/3438969748", "amenity": "public_bath", "name": "ホテル三光;川越湯遊ランド" }, "geometry": { "type": "Point", "coordinates": [ 139.4835754, 35.9171714 ] } },
{ "type": "Feature", "properties": { "id": "node/3453241291", "amenity": "public_bath", "bath:type": "onsen", "name": "梅園温泉" }, "geometry": { "type": "Point", "coordinates": [ 131.5043116, 33.2775476 ] } },
{ "type": "Feature", "properties": { "id": "node/3486469787", "amenity": "public_bath", "name": "天然温泉薬石浴『嵐の湯』" }, "geometry": { "type": "Point", "coordinates": [ 139.562972300000013, 35.4521141 ] } },
{ "type": "Feature", "properties": { "id": "node/3494267182", "amenity": "public_bath", "name": "反町浴場" }, "geometry": { "type": "Point", "coordinates": [ 139.6250929, 35.4742179 ] } },
{ "type": "Feature", "properties": { "id": "node/3555406953", "amenity": "public_bath", "name": null }, "geometry": { "type": "Point", "coordinates": [ 130.24748120000001, 30.4543937 ] } },
{ "type": "Feature", "properties": { "id": "node/3555406954", "amenity": "public_bath", "bath:type": "onsen", "name": "寝待温泉" }, "geometry": { "type": "Point", "coordinates": [ 130.2334798, 30.4679342 ] } },
{ "type": "Feature", "properties": { "id": "node/3593919160", "amenity": "public_bath", "bath:type": "onsen", "name": "大湯" }, "geometry": { "type": "Point", "coordinates": [ 139.0711176, 35.0982197 ] } },
{ "type": "Feature", "properties": { "id": "node/3600343994", "amenity": "public_bath", "bath:type": "onsen", "name": "清水町共同浴場" }, "geometry": { "type": "Point", "coordinates": [ 139.071295600000013, 35.0940027 ] } },
{ "type": "Feature", "properties": { "id": "node/3654797800", "amenity": "public_bath", "bath:type": "onsen", "name": "展望大浴場" }, "geometry": { "type": "Point", "coordinates": [ 130.3994399, 33.1568937 ] } },
{ "type": "Feature", "properties": { "id": "node/3654799329", "amenity": "public_bath", "bath:type": "onsen", "name": "家族風呂" }, "geometry": { "type": "Point", "coordinates": [ 130.400275, 33.1568513 ] } },
{ "type": "Feature", "properties": { "id": "node/3657128361", "amenity": "public_bath", "name": "神田温泉" }, "geometry": { "type": "Point", "coordinates": [ 135.405663, 34.7227292 ] } },
{ "type": "Feature", "properties": { "id": "node/3687591052", "amenity": "public_bath", "bath:type": "onsen", "name": "高山温泉ドーム" }, "geometry": { "type": "Point", "coordinates": [ 130.9507303, 31.3373157 ] } },
{ "type": "Feature", "properties": { "id": "node/3695075018", "amenity": "public_bath", "name": "Spa GALA" }, "geometry": { "type": "Point", "coordinates": [ 136.9073913, 35.2812062 ] } },
{ "type": "Feature", "properties": { "id": "node/3710323702", "amenity": "public_bath", "name": "栗原温泉" }, "geometry": { "type": "Point", "coordinates": [ 133.1913224, 34.4055308 ] } },
{ "type": "Feature", "properties": { "id": "node/3721587172", "amenity": "public_bath", "name": "元勢温泉" }, "geometry": { "type": "Point", "coordinates": [ 136.8592672, 35.1654116 ] } },
{ "type": "Feature", "properties": { "id": "node/3730375839", "amenity": "public_bath", "name": "玉の湯" }, "geometry": { "type": "Point", "coordinates": [ 130.4069153, 33.1670979 ] } },
{ "type": "Feature", "properties": { "id": "node/3731342309", "amenity": "public_bath", "name": null }, "geometry": { "type": "Point", "coordinates": [ 139.6678967, 35.2685754 ] } },
{ "type": "Feature", "properties": { "id": "node/3740858933", "amenity": "public_bath", "name": "軍人湯" }, "geometry": { "type": "Point", "coordinates": [ 135.7709226, 34.9553144 ] } },
{ "type": "Feature", "properties": { "id": "node/3786002487", "amenity": "public_bath", "name": "黄金の湯" }, "geometry": { "type": "Point", "coordinates": [ 138.143857, 36.9027164 ] } },
{ "type": "Feature", "properties": { "id": "node/3792566023", "amenity": "public_bath", "name": "荒湯" }, "geometry": { "type": "Point", "coordinates": [ 134.488105499999989, 35.554844 ] } },
{ "type": "Feature", "properties": { "id": "node/3794330089", "amenity": "public_bath", "name": "観音湯" }, "geometry": { "type": "Point", "coordinates": [ 139.73576, 35.5540204 ] } },
{ "type": "Feature", "properties": { "id": "node/3830064288", "amenity": "public_bath", "bath:type": "foot_bath", "name": "湯元の足湯" }, "geometry": { "type": "Point", "coordinates": [ 130.2608731, 32.7422973 ] } },
{ "type": "Feature", "properties": { "id": "node/3830069882", "amenity": "public_bath", "bath:type": "finger_bath", "name": "指湯" }, "geometry": { "type": "Point", "coordinates": [ 130.260897300000011, 32.7421281 ] } },
{ "type": "Feature", "properties": { "id": "node/3833604259", "amenity": "public_bath", "bath:type": "foot_bath", "name": "Foot bath" }, "geometry": { "type": "Point", "coordinates": [ 130.2635417, 32.7383624 ] } },
{ "type": "Feature", "properties": { "id": "node/3833604261", "amenity": "public_bath", "bath:type": "onsen", "name": "雲仙新湯温泉館" }, "geometry": { "type": "Point", "coordinates": [ 130.2636003, 32.7381153 ] } },
{ "type": "Feature", "properties": { "id": "node/3833964081", "amenity": "public_bath", "name": null }, "geometry": { "type": "Point", "coordinates": [ 139.703607799999986, 35.2310887 ] } },
{ "type": "Feature", "properties": { "id": "node/3839230661", "amenity": "public_bath", "name": null }, "geometry": { "type": "Point", "coordinates": [ 139.67729030000001, 35.2709996 ] } },
{ "type": "Feature", "properties": { "id": "node/3842120900", "amenity": "public_bath", "bath:type": "onsen", "name": "Yuraku" }, "geometry": { "type": "Point", "coordinates": [ 135.4762565, 34.624277 ] } },
{ "type": "Feature", "properties": { "id": "node/3881822158", "amenity": "public_bath", "name": "油壺の湯" }, "geometry": { "type": "Point", "coordinates": [ 139.6145263, 35.1614155 ] } },
{ "type": "Feature", "properties": { "id": "node/3888953412", "amenity": "public_bath", "name": "仁王門湯" }, "geometry": { "type": "Point", "coordinates": [ 136.9025004, 35.1588978 ] } },
{ "type": "Feature", "properties": { "id": "node/3912257796", "amenity": "public_bath", "name": "富士見湯健康セントー" }, "geometry": { "type": "Point", "coordinates": [ 139.4300844, 35.7372614 ] } },
{ "type": "Feature", "properties": { "id": "node/3918009230", "amenity": "public_bath", "name": "幸の湯" }, "geometry": { "type": "Point", "coordinates": [ 139.7325755, 35.5575271 ] } },
{ "type": "Feature", "properties": { "id": "node/3921512123", "amenity": "public_bath", "name": "湯ノ口温泉" }, "geometry": { "type": "Point", "coordinates": [ 135.8892602, 33.8644006 ] } },
{ "type": "Feature", "properties": { "id": "node/3979028521", "amenity": "public_bath", "name": "鴫野湯" }, "geometry": { "type": "Point", "coordinates": [ 135.5375867, 34.6920938 ] } },
{ "type": "Feature", "properties": { "id": "node/4020934320", "amenity": "public_bath", "name": "百々温泉" }, "geometry": { "type": "Point", "coordinates": [ 134.0499902, 35.1780276 ] } },
{ "type": "Feature", "properties": { "id": "node/4029229253", "amenity": "public_bath", "name": "足湯" }, "geometry": { "type": "Point", "coordinates": [ 131.0319091, 33.8393367 ] } },
{ "type": "Feature", "properties": { "id": "node/4032225408", "amenity": "public_bath", "name": "よこはま温泉;横浜町老人福祉センター" }, "geometry": { "type": "Point", "coordinates": [ 141.251642800000013, 41.0823199 ] } },
{ "type": "Feature", "properties": { "id": "node/4047237831", "amenity": "public_bath", "name": "丹羽式サンドバス鶴岡癒の蔵" }, "geometry": { "type": "Point", "coordinates": [ 139.83329710000001, 38.7376369 ] } },
{ "type": "Feature", "properties": { "id": "node/4086536835", "amenity": "public_bath", "name": "三宝湯" }, "geometry": { "type": "Point", "coordinates": [ 135.5449985, 34.6648042 ] } },
{ "type": "Feature", "properties": { "id": "node/4114603028", "amenity": "public_bath", "name": "初音湯" }, "geometry": { "type": "Point", "coordinates": [ 135.5462298, 34.6600148 ] } },
{ "type": "Feature", "properties": { "id": "node/4134893200", "amenity": "public_bath", "name": "下野市 保健福祉センター ゆうゆう館" }, "geometry": { "type": "Point", "coordinates": [ 139.8377021, 36.3853003 ] } },
{ "type": "Feature", "properties": { "id": "node/4140587605", "amenity": "public_bath", "name": "東山湯温泉" }, "geometry": { "type": "Point", "coordinates": [ 135.778544900000014, 35.0291438 ] } },
{ "type": "Feature", "properties": { "id": "node/4148430256", "amenity": "public_bath", "bath:type": "onsen", "name": null }, "geometry": { "type": "Point", "coordinates": [ 140.7975041, 39.8034455 ] } },
{ "type": "Feature", "properties": { "id": "node/4229642062", "amenity": "public_bath", "bath:type": "sento", "name": "船岡温泉" }, "geometry": { "type": "Point", "coordinates": [ 135.7444985, 35.0369487 ] } },
{ "type": "Feature", "properties": { "id": "node/4238894598", "amenity": "public_bath", "bath:type": "onsen", "name": "和琴温泉" }, "geometry": { "type": "Point", "coordinates": [ 144.3106368, 43.5794971 ] } },
{ "type": "Feature", "properties": { "id": "node/4242363192", "amenity": "public_bath", "name": "アクアリゾート清里;天女の湯" }, "geometry": { "type": "Point", "coordinates": [ 138.4315243, 35.9037428 ] } },
{ "type": "Feature", "properties": { "id": "node/4246168486", "amenity": "public_bath", "bath:type": "onsen", "name": "キャナルリゾート" }, "geometry": { "type": "Point", "coordinates": [ 136.8782536, 35.1190255 ] } },
{ "type": "Feature", "properties": { "id": "node/4247932806", "amenity": "public_bath", "name": "嵐山渓谷天然温泉；平成楼（閉館しました）" }, "geometry": { "type": "Point", "coordinates": [ 139.313748299999986, 36.0340225 ] } },
{ "type": "Feature", "properties": { "id": "node/4266355287", "amenity": "public_bath", "name": "梅の湯" }, "geometry": { "type": "Point", "coordinates": [ 141.139421199999987, 39.7059958 ] } },
{ "type": "Feature", "properties": { "id": "node/4271092672", "amenity": "public_bath", "name": "パビリオ曽根の湯" }, "geometry": { "type": "Point", "coordinates": [ 130.9342141, 33.8223089 ] } },
{ "type": "Feature", "properties": { "id": "node/4271455115", "amenity": "public_bath", "bath:type": "onsen", "name": "坂本温泉" }, "geometry": { "type": "Point", "coordinates": [ 130.2907811, 30.8023208 ] } },
{ "type": "Feature", "properties": { "id": "node/4271603487", "amenity": "public_bath", "bath:type": "onsen", "name": "足付温泉" }, "geometry": { "type": "Point", "coordinates": [ 139.217576400000013, 34.3198614 ] } },
{ "type": "Feature", "properties": { "id": "node/4297496796", "amenity": "public_bath", "bath:type": "onsen", "name": "磐石温泉 磐石山荘" }, "geometry": { "type": "Point", "coordinates": [ 140.3680219, 42.1326544 ] } },
{ "type": "Feature", "properties": { "id": "node/4299319569", "amenity": "public_bath", "name": "木島温泉" }, "geometry": { "type": "Point", "coordinates": [ 134.23544480000001, 35.4936785 ] } },
{ "type": "Feature", "properties": { "id": "node/4324675419", "amenity": "public_bath", "bath:type": "onsen", "name": "湯泉地温泉 滝の湯" }, "geometry": { "type": "Point", "coordinates": [ 135.790300800000011, 33.987753 ] } },
{ "type": "Feature", "properties": { "id": "node/4326352706", "amenity": "public_bath", "bath:type": "onsen", "name": "ときわ湯" }, "geometry": { "type": "Point", "coordinates": [ 139.9885668, 35.6956536 ] } },
{ "type": "Feature", "properties": { "id": "node/4329372304", "amenity": "public_bath", "name": null }, "geometry": { "type": "Point", "coordinates": [ 139.3724506, 36.2954818 ] } },
{ "type": "Feature", "properties": { "id": "node/4334601745", "amenity": "public_bath", "name": "山代温泉古総湯" }, "geometry": { "type": "Point", "coordinates": [ 136.3614229, 36.2888848 ] } },
{ "type": "Feature", "properties": { "id": "node/4334601746", "amenity": "public_bath", "name": "山代温泉総湯" }, "geometry": { "type": "Point", "coordinates": [ 136.3612943, 36.288596 ] } },
{ "type": "Feature", "properties": { "id": "node/4356790717", "amenity": "public_bath", "name": "東前温泉しんわの湯" }, "geometry": { "type": "Point", "coordinates": [ 140.6822967, 41.8469314 ] } },
{ "type": "Feature", "properties": { "id": "node/4357955708", "amenity": "public_bath", "bath:type": "onsen", "name": "砂むし会館 砂楽" }, "geometry": { "type": "Point", "coordinates": [ 130.65193, 31.229933 ] } },
{ "type": "Feature", "properties": { "id": "node/4381641686", "amenity": "public_bath", "bath:type": "onsen", "name": "温泉" }, "geometry": { "type": "Point", "coordinates": [ 135.1151405, 34.7083354 ] } },
{ "type": "Feature", "properties": { "id": "node/4381665842", "amenity": "public_bath", "name": null }, "geometry": { "type": "Point", "coordinates": [ 135.1153597, 34.7082578 ] } },
{ "type": "Feature", "properties": { "id": "node/4394290401", "amenity": "public_bath", "name": "大栄湯" }, "geometry": { "type": "Point", "coordinates": [ 135.5541441, 34.6654112 ] } },
{ "type": "Feature", "properties": { "id": "node/4403656721", "amenity": "public_bath", "bath:type": "onsen", "name": "湯の花" }, "geometry": { "type": "Point", "coordinates": [ 141.158546699999988, 42.9629722 ] } },
{ "type": "Feature", "properties": { "id": "node/4411425129", "amenity": "public_bath", "name": null }, "geometry": { "type": "Point", "coordinates": [ 139.6875077, 35.2648069 ] } },
{ "type": "Feature", "properties": { "id": "node/4412358090", "amenity": "public_bath", "name": "湯あそびひろば３・８ＨＯＵＳＥ" }, "geometry": { "type": "Point", "coordinates": [ 135.4090027, 34.7224063 ] } },
{ "type": "Feature", "properties": { "id": "node/4430843437", "amenity": "public_bath", "name": "和合温泉 湯楽" }, "geometry": { "type": "Point", "coordinates": [ 137.033474899999987, 35.1137838 ] } },
{ "type": "Feature", "properties": { "id": "node/4435927692", "amenity": "public_bath", "bath:type": "onsen", "name": "湯泊温泉" }, "geometry": { "type": "Point", "coordinates": [ 130.4776817, 30.2341902 ] } },
{ "type": "Feature", "properties": { "id": "node/4443077787", "amenity": "public_bath", "name": "玉乃湯" }, "geometry": { "type": "Point", "coordinates": [ 135.4086144, 34.7180795 ] } },
{ "type": "Feature", "properties": { "id": "node/4461125897", "amenity": "public_bath", "name": "千成湯" }, "geometry": { "type": "Point", "coordinates": [ 141.3686433, 43.0414507 ] } },
{ "type": "Feature", "properties": { "id": "node/4470931396", "amenity": "public_bath", "bath:type": "onsen", "name": "洞輪沢温泉" }, "geometry": { "type": "Point", "coordinates": [ 139.8387524, 33.0751643 ] } },
{ "type": "Feature", "properties": { "id": "node/4475271989", "amenity": "public_bath", "name": "仙石湯" }, "geometry": { "type": "Point", "coordinates": [ 139.763202, 35.7439491 ] } },
{ "type": "Feature", "properties": { "id": "node/4492362100", "amenity": "public_bath", "name": "銀泉浴場" }, "geometry": { "type": "Point", "coordinates": [ 139.728653, 35.2481405 ] } },
{ "type": "Feature", "properties": { "id": "node/4501653543", "amenity": "public_bath", "name": "寿湯" }, "geometry": { "type": "Point", "coordinates": [ 133.9024258, 35.4697475 ] } },
{ "type": "Feature", "properties": { "id": "node/4501653544", "amenity": "public_bath", "name": "大黒天の湯 足湯" }, "geometry": { "type": "Point", "coordinates": [ 133.9019983, 35.4704376 ] } },
{ "type": "Feature", "properties": { "id": "node/4535362661", "amenity": "public_bath", "bath:type": "onsen", "name": null }, "geometry": { "type": "Point", "coordinates": [ 140.768841900000012, 39.7958412 ] } },
{ "type": "Feature", "properties": { "id": "node/4535362806", "amenity": "public_bath", "bath:type": "onsen", "name": null }, "geometry": { "type": "Point", "coordinates": [ 140.779505300000011, 39.80485 ] } },
{ "type": "Feature", "properties": { "id": "node/4535410684", "amenity": "public_bath", "bath:type": "onsen", "name": null }, "geometry": { "type": "Point", "coordinates": [ 140.794722400000012, 39.8007612 ] } },
{ "type": "Feature", "properties": { "id": "node/4547921905", "amenity": "public_bath", "name": "大黒湯" }, "geometry": { "type": "Point", "coordinates": [ 135.7712052, 34.9971796 ] } },
{ "type": "Feature", "properties": { "id": "node/4554760789", "amenity": "public_bath", "name": "京王高尾山温泉　極楽湯" }, "geometry": { "type": "Point", "coordinates": [ 139.2693941, 35.6322503 ] } },
{ "type": "Feature", "properties": { "id": "node/4558259522", "amenity": "public_bath", "bath:type": "onsen", "name": null }, "geometry": { "type": "Point", "coordinates": [ 129.5930486, 29.4575687 ] } },
{ "type": "Feature", "properties": { "id": "node/4559332429", "amenity": "public_bath", "bath:type": "onsen", "name": null }, "geometry": { "type": "Point", "coordinates": [ 129.5296057, 29.6863362 ] } },
{ "type": "Feature", "properties": { "id": "node/4579440246", "amenity": "public_bath", "name": null }, "geometry": { "type": "Point", "coordinates": [ 137.96796040000001, 36.2364825 ] } },
{ "type": "Feature", "properties": { "id": "node/4583459696", "amenity": "public_bath", "name": "鍛冶屋温泉 久遠の湯" }, "geometry": { "type": "Point", "coordinates": [ 134.3277305, 35.3590266 ] } },
{ "type": "Feature", "properties": { "id": "node/4585443307", "amenity": "public_bath", "bath:type": "hot_spring", "name": "Tenseien" }, "geometry": { "type": "Point", "coordinates": [ 139.0947773, 35.2290897 ] } },
{ "type": "Feature", "properties": { "id": "node/4586821207", "amenity": "public_bath", "name": "かんぽの宿一関" }, "geometry": { "type": "Point", "coordinates": [ 141.065078199999988, 38.9428032 ] } },
{ "type": "Feature", "properties": { "id": "node/4586821221", "amenity": "public_bath", "name": "いつくし園" }, "geometry": { "type": "Point", "coordinates": [ 141.0433845, 38.9445478 ] } },
{ "type": "Feature", "properties": { "id": "node/4586821222", "amenity": "public_bath", "name": "渓泉閣" }, "geometry": { "type": "Point", "coordinates": [ 141.045254, 38.9442771 ] } },
{ "type": "Feature", "properties": { "id": "node/4590235155", "amenity": "public_bath", "name": "あけぼの湯" }, "geometry": { "type": "Point", "coordinates": [ 139.4795399, 35.6797311 ] } },
{ "type": "Feature", "properties": { "id": "node/4607450725", "amenity": "public_bath", "name": "竹の湯" }, "geometry": { "type": "Point", "coordinates": [ 139.7346614, 35.7065925 ] } },
{ "type": "Feature", "properties": { "id": "node/4607758556", "amenity": "public_bath", "bath:type": "onsen", "name": null }, "geometry": { "type": "Point", "coordinates": [ 129.853070800000012, 29.8350548 ] } },
{ "type": "Feature", "properties": { "id": "node/4607758561", "amenity": "public_bath", "bath:type": "onsen", "name": null }, "geometry": { "type": "Point", "coordinates": [ 129.85036310000001, 29.841353 ] } },
{ "type": "Feature", "properties": { "id": "node/4609262942", "amenity": "public_bath", "name": "日の出湯" }, "geometry": { "type": "Point", "coordinates": [ 139.7832192, 35.6675404 ] } },
{ "type": "Feature", "properties": { "id": "node/4631870305", "amenity": "public_bath", "bath:type": "onsen", "name": "星の湯" }, "geometry": { "type": "Point", "coordinates": [ 135.752789299999989, 33.9384688 ] } },
{ "type": "Feature", "properties": { "id": "node/4634876419", "amenity": "public_bath", "name": "大門湯" }, "geometry": { "type": "Point", "coordinates": [ 135.783248, 34.644192 ] } },
{ "type": "Feature", "properties": { "id": "node/4667642149", "amenity": "public_bath", "name": "湯泉地温泉公衆浴場 泉湯" }, "geometry": { "type": "Point", "coordinates": [ 135.7948634, 33.9913805 ] } },
{ "type": "Feature", "properties": { "id": "node/4671876091", "amenity": "public_bath", "bath:type": "onsen", "name": "Niimi Onsen" }, "geometry": { "type": "Point", "coordinates": [ 140.547472, 42.8820631 ] } },
{ "type": "Feature", "properties": { "id": "node/4676035078", "amenity": "public_bath", "name": "草津湯元；水春" }, "geometry": { "type": "Point", "coordinates": [ 135.918098500000013, 34.9976514 ] } },
{ "type": "Feature", "properties": { "id": "node/4676184563", "amenity": "public_bath", "name": "美榛苑" }, "geometry": { "type": "Point", "coordinates": [ 135.968515200000013, 34.535277 ] } },
{ "type": "Feature", "properties": { "id": "node/4676445093", "amenity": "public_bath", "name": "鳴子温泉;早稲田桟敷湯" }, "geometry": { "type": "Point", "coordinates": [ 140.7174681, 38.7436838 ] } },
{ "type": "Feature", "properties": { "id": "node/4678122640", "amenity": "public_bath", "name": "中央温泉" }, "geometry": { "type": "Point", "coordinates": [ 135.7450342, 34.5136212 ] } },
{ "type": "Feature", "properties": { "id": "node/4679548523", "amenity": "public_bath", "name": "ユーランド" }, "geometry": { "type": "Point", "coordinates": [ 139.529400399999986, 35.5330145 ] } },
{ "type": "Feature", "properties": { "id": "node/4685491022", "amenity": "public_bath", "bath:type": "onsen", "name": "武蔵小山温泉;清水湯" }, "geometry": { "type": "Point", "coordinates": [ 139.7076754, 35.620192 ] } },
{ "type": "Feature", "properties": { "id": "node/4698983197", "amenity": "public_bath", "name": "東松島市 健康増進センターゆ・ぷ・と" }, "geometry": { "type": "Point", "coordinates": [ 141.2091571, 38.4198068 ] } },
{ "type": "Feature", "properties": { "id": "node/4704756052", "amenity": "public_bath", "name": "御老公の湯境店" }, "geometry": { "type": "Point", "coordinates": [ 139.7970574, 36.1023772 ] } },
{ "type": "Feature", "properties": { "id": "node/4708341094", "amenity": "public_bath", "bath:type": "foot_bath", "name": "とっこの湯" }, "geometry": { "type": "Point", "coordinates": [ 138.9275362, 34.9704528 ] } },
{ "type": "Feature", "properties": { "id": "node/4721635278", "amenity": "public_bath", "name": "バーデハウス大沢温泉" }, "geometry": { "type": "Point", "coordinates": [ 135.1922073, 34.846145 ] } },
{ "type": "Feature", "properties": { "id": "node/4723169318", "amenity": "public_bath", "name": "びらとり温泉 ゆから" }, "geometry": { "type": "Point", "coordinates": [ 142.1654778, 42.6459872 ] } },
{ "type": "Feature", "properties": { "id": "node/4727887895", "amenity": "public_bath", "name": "辰口温泉総湯　里山の湯" }, "geometry": { "type": "Point", "coordinates": [ 136.5471296, 36.4437884 ] } },
{ "type": "Feature", "properties": { "id": "node/4727887896", "amenity": "public_bath", "bath:type": "foot_bath", "name": null }, "geometry": { "type": "Point", "coordinates": [ 136.5463205, 36.4447244 ] } },
{ "type": "Feature", "properties": { "id": "node/4734367163", "amenity": "public_bath", "name": "今井湯" }, "geometry": { "type": "Point", "coordinates": [ 139.655452700000012, 35.5698025 ] } },
{ "type": "Feature", "properties": { "id": "node/4757342637", "amenity": "public_bath", "name": "スーパー温泉;元気湯" }, "geometry": { "type": "Point", "coordinates": [ 131.0728072, 31.7350892 ] } },
{ "type": "Feature", "properties": { "id": "node/4757386206", "amenity": "public_bath", "name": "ラスパたかざき" }, "geometry": { "type": "Point", "coordinates": [ 131.0652198, 31.8821408 ] } },
{ "type": "Feature", "properties": { "id": "node/4757562649", "amenity": "public_bath", "name": "青井岳" }, "geometry": { "type": "Point", "coordinates": [ 131.2251197, 31.829502 ] } },
{ "type": "Feature", "properties": { "id": "node/4759336255", "amenity": "public_bath", "name": "鶴の湯" }, "geometry": { "type": "Point", "coordinates": [ 140.8834146, 38.2294711 ] } },
{ "type": "Feature", "properties": { "id": "node/4776303531", "amenity": "public_bath", "name": "ながぬま温泉" }, "geometry": { "type": "Point", "coordinates": [ 141.7245503, 43.0027748 ] } },
{ "type": "Feature", "properties": { "id": "node/4778177270", "amenity": "public_bath", "bath:type": "onsen", "name": "砂むし温泉（砂樂）" }, "geometry": { "type": "Point", "coordinates": [ 130.6521022, 31.2300769 ] } },
{ "type": "Feature", "properties": { "id": "node/4782509826", "amenity": "public_bath", "name": "友の湯" }, "geometry": { "type": "Point", "coordinates": [ 141.5632089, 38.906565 ] } },
{ "type": "Feature", "properties": { "id": "node/4783927722", "amenity": "public_bath", "name": "高槻新温泉" }, "geometry": { "type": "Point", "coordinates": [ 135.6216289, 34.8524408 ] } },
{ "type": "Feature", "properties": { "id": "node/4788010523", "amenity": "public_bath", "bath:type": "onsen", "name": "崎の湯" }, "geometry": { "type": "Point", "coordinates": [ 135.3370223, 33.6769556 ] } },
{ "type": "Feature", "properties": { "id": "node/4809634399", "amenity": "public_bath", "bath:type": "foot_bath", "name": null }, "geometry": { "type": "Point", "coordinates": [ 139.1875254, 35.7273942 ] } },
{ "type": "Feature", "properties": { "id": "node/4813330721", "amenity": "public_bath", "name": null }, "geometry": { "type": "Point", "coordinates": [ 131.4686905, 33.315207 ] } },
{ "type": "Feature", "properties": { "id": "node/4819151812", "amenity": "public_bath", "bath:type": "foot_bath", "name": null }, "geometry": { "type": "Point", "coordinates": [ 138.6009204, 35.4440075 ] } },
{ "type": "Feature", "properties": { "id": "node/4835700656", "amenity": "public_bath", "name": "箕面温泉スパーガーデン" }, "geometry": { "type": "Point", "coordinates": [ 135.4687989, 34.8387453 ] } },
{ "type": "Feature", "properties": { "id": "node/4837886778", "amenity": "public_bath", "bath:type": "foot_bath", "name": "柳橋足湯" }, "geometry": { "type": "Point", "coordinates": [ 135.3478044, 33.6831939 ] } },
{ "type": "Feature", "properties": { "id": "node/4837886785", "amenity": "public_bath", "bath:type": "foot_bath", "name": "御船足湯" }, "geometry": { "type": "Point", "coordinates": [ 135.3435959, 33.6863751 ] } },
{ "type": "Feature", "properties": { "id": "node/4840944522", "amenity": "public_bath", "bath:type": "onsen", "name": "裏見ヶ滝温泉" }, "geometry": { "type": "Point", "coordinates": [ 139.816661900000014, 33.0635346 ] } },
{ "type": "Feature", "properties": { "id": "node/4843126086", "amenity": "public_bath", "bath:type": "foot_bath", "name": "天然温泉 足湯" }, "geometry": { "type": "Point", "coordinates": [ 139.0688051, 36.6126879 ] } },
{ "type": "Feature", "properties": { "id": "node/4846678889", "amenity": "public_bath", "name": "雲母湯" }, "geometry": { "type": "Point", "coordinates": [ 135.794225399999988, 35.0458067 ] } },
{ "type": "Feature", "properties": { "id": "node/4846907900", "amenity": "public_bath", "name": "有田川温泉 光の湯" }, "geometry": { "type": "Point", "coordinates": [ 135.1642899, 34.0745063 ] } },
{ "type": "Feature", "properties": { "id": "node/4851777407", "amenity": "public_bath", "name": "みなと花の湯" }, "geometry": { "type": "Point", "coordinates": [ 136.8647287, 35.1045875 ] } },
{ "type": "Feature", "properties": { "id": "node/4860808048", "amenity": "public_bath", "bath:type": "onsen", "name": "北のたまゆら" }, "geometry": { "type": "Point", "coordinates": [ 141.418636600000013, 43.1034012 ] } },
{ "type": "Feature", "properties": { "id": "node/4861194715", "amenity": "public_bath", "name": "曙湯" }, "geometry": { "type": "Point", "coordinates": [ 139.795394499999986, 35.7181558 ] } },
{ "type": "Feature", "properties": { "id": "node/4861513587", "amenity": "public_bath", "name": "薬師湯" }, "geometry": { "type": "Point", "coordinates": [ 139.8093044, 35.7113943 ] } },
{ "type": "Feature", "properties": { "id": "node/4869382600", "amenity": "public_bath", "bath:type": "onsen", "name": "平内海中温泉" }, "geometry": { "type": "Point", "coordinates": [ 130.4839375, 30.2309647 ] } },
{ "type": "Feature", "properties": { "id": "node/4869382613", "amenity": "public_bath", "bath:type": "onsen", "name": null }, "geometry": { "type": "Point", "coordinates": [ 130.477918100000011, 30.2337709 ] } },
{ "type": "Feature", "properties": { "id": "node/4876915978", "amenity": "public_bath", "bath:type": "onsen", "name": "たまゆらの杜" }, "geometry": { "type": "Point", "coordinates": [ 141.4160257, 43.1260105 ] } },
{ "type": "Feature", "properties": { "id": "node/4883268187", "amenity": "public_bath", "name": "柏湯" }, "geometry": { "type": "Point", "coordinates": [ 139.6933575, 35.7066687 ] } },
{ "type": "Feature", "properties": { "id": "node/4907407543", "amenity": "public_bath", "name": "箕面湯元水春" }, "geometry": { "type": "Point", "coordinates": [ 135.494717, 34.8226564 ] } },
{ "type": "Feature", "properties": { "id": "node/4910726053", "amenity": "public_bath", "name": "はたるの湯" }, "geometry": { "type": "Point", "coordinates": [ 136.001988, 35.021875 ] } },
{ "type": "Feature", "properties": { "id": "node/4916963622", "amenity": "public_bath", "bath:type": "hot_spring", "name": "奥奥八九郎温泉" }, "geometry": { "type": "Point", "coordinates": [ 140.7551714, 40.4079014 ] } },
{ "type": "Feature", "properties": { "id": "node/4936325331", "amenity": "public_bath", "name": "永和湯" }, "geometry": { "type": "Point", "coordinates": [ 135.5745837, 34.6588345 ] } },
{ "type": "Feature", "properties": { "id": "node/4942040086", "amenity": "public_bath", "name": "スーパー健康ランド華の湯" }, "geometry": { "type": "Point", "coordinates": [ 139.530021, 36.1687906 ] } },
{ "type": "Feature", "properties": { "id": "node/4952718578", "amenity": "public_bath", "name": "虎杖伝説の里" }, "geometry": { "type": "Point", "coordinates": [ 139.6011246, 35.7122794 ] } },
{ "type": "Feature", "properties": { "id": "node/4956242430", "amenity": "public_bath", "name": "ひだまりの泉 萩の湯" }, "geometry": { "type": "Point", "coordinates": [ 139.7777542, 35.7242858 ] } },
{ "type": "Feature", "properties": { "id": "node/4963007749", "amenity": "public_bath", "name": "三光湯" }, "geometry": { "type": "Point", "coordinates": [ 139.390568800000011, 35.7018772 ] } },
{ "type": "Feature", "properties": { "id": "node/4973320075", "amenity": "public_bath", "bath:type": "hot_spring", "name": "サウナの梅湯" }, "geometry": { "type": "Point", "coordinates": [ 135.765660200000013, 34.9929538 ] } },
{ "type": "Feature", "properties": { "id": "node/4987395381", "amenity": "public_bath", "bath:type": "onsen", "name": "猿ヶ京温泉" }, "geometry": { "type": "Point", "coordinates": [ 138.8877664, 36.7252431 ] } },
{ "type": "Feature", "properties": { "id": "node/4987541304", "amenity": "public_bath", "name": "法師温泉" }, "geometry": { "type": "Point", "coordinates": [ 138.8300289, 36.7436583 ] } },
{ "type": "Feature", "properties": { "id": "node/4989719221", "amenity": "public_bath", "name": "五香湯" }, "geometry": { "type": "Point", "coordinates": [ 135.7498989, 34.9967545 ] } },
{ "type": "Feature", "properties": { "id": "node/4996185426", "amenity": "public_bath", "name": "200yen Onsen" }, "geometry": { "type": "Point", "coordinates": [ 130.2592027, 32.7418178 ] } },
{ "type": "Feature", "properties": { "id": "node/5008998805", "amenity": "public_bath", "bath:type": "onsen", "name": "松が下雅湯" }, "geometry": { "type": "Point", "coordinates": [ 139.2182186, 34.3205906 ] } },
{ "type": "Feature", "properties": { "id": "node/5011794340", "amenity": "public_bath", "bath:type": "onsen", "name": "式根島温泉憩の家" }, "geometry": { "type": "Point", "coordinates": [ 139.2164031, 34.3214442 ] } },
{ "type": "Feature", "properties": { "id": "node/5015696084", "amenity": "public_bath", "name": "いなほの湯" }, "geometry": { "type": "Point", "coordinates": [ 139.579810400000014, 36.1218519 ] } },
{ "type": "Feature", "properties": { "id": "node/5041433921", "amenity": "public_bath", "bath:type": "onsen", "name": "神津島温泉保養センター" }, "geometry": { "type": "Point", "coordinates": [ 139.129648800000012, 34.2207911 ] } },
{ "type": "Feature", "properties": { "id": "node/5044286425", "amenity": "public_bath", "name": "鹿之子温泉かのこの湯" }, "geometry": { "type": "Point", "coordinates": [ 135.2101257, 34.8601127 ] } },
{ "type": "Feature", "properties": { "id": "node/5046049726", "amenity": "public_bath", "name": "平和湯" }, "geometry": { "type": "Point", "coordinates": [ 139.641004, 35.7261206 ] } },
{ "type": "Feature", "properties": { "id": "node/5049784184", "amenity": "public_bath", "bath:type": "foot_bath", "name": null }, "geometry": { "type": "Point", "coordinates": [ 131.939312699999988, 34.3244597 ] } },
{ "type": "Feature", "properties": { "id": "node/5052050927", "amenity": "public_bath", "name": "バイパスサウナ" }, "geometry": { "type": "Point", "coordinates": [ 140.4188052, 37.5716965 ] } },
{ "type": "Feature", "properties": { "id": "node/5052476921", "amenity": "public_bath", "name": "ヌーランドさがみ湯" }, "geometry": { "type": "Point", "coordinates": [ 139.7146093, 35.5521937 ] } },
{ "type": "Feature", "properties": { "id": "node/5055660056", "amenity": "public_bath", "bath:type": "onsen", "name": "能勢温泉" }, "geometry": { "type": "Point", "coordinates": [ 135.3895623, 34.9911666 ] } },
{ "type": "Feature", "properties": { "id": "node/5073706537", "amenity": "public_bath", "name": "大師湯" }, "geometry": { "type": "Point", "coordinates": [ 135.531119600000011, 34.6644396 ] } },
{ "type": "Feature", "properties": { "id": "node/5085765594", "amenity": "public_bath", "name": "羽衣湯" }, "geometry": { "type": "Point", "coordinates": [ 139.6843504, 35.6920104 ] } },
{ "type": "Feature", "properties": { "id": "node/5095192835", "amenity": "public_bath", "bath:type": "onsen", "name": "貝の沢温泉" }, "geometry": { "type": "Point", "coordinates": [ 140.2608995, 39.7210673 ] } },
{ "type": "Feature", "properties": { "id": "node/5096680337", "amenity": "public_bath", "name": "Tarou Onsen" }, "geometry": { "type": "Point", "coordinates": [ 141.392541099999988, 40.675127 ] } },
{ "type": "Feature", "properties": { "id": "node/5103900374", "amenity": "public_bath", "bath:type": "onsen", "name": "大蔵湯" }, "geometry": { "type": "Point", "coordinates": [ 139.429996100000011, 35.5617325 ] } },
{ "type": "Feature", "properties": { "id": "node/5107591214", "amenity": "public_bath", "bath:type": "onsen", "name": "金森湯" }, "geometry": { "type": "Point", "coordinates": [ 139.4621294, 35.5273171 ] } },
{ "type": "Feature", "properties": { "id": "node/5107737728", "amenity": "public_bath", "bath:type": "hot_spring", "name": "道後温泉本館" }, "geometry": { "type": "Point", "coordinates": [ 132.786366500000014, 33.85206 ] } },
{ "type": "Feature", "properties": { "id": "node/5110048934", "amenity": "public_bath", "name": "まにわ温泉白梅の湯" }, "geometry": { "type": "Point", "coordinates": [ 133.7555781, 35.0400514 ] } },
{ "type": "Feature", "properties": { "id": "node/5112034321", "amenity": "public_bath", "bath:type": "foot_bath", "name": "カラコロの足湯" }, "geometry": { "type": "Point", "coordinates": [ 138.1435558, 36.480781 ] } },
{ "type": "Feature", "properties": { "id": "node/5115675342", "amenity": "public_bath", "name": "旧上天温泉" }, "geometry": { "type": "Point", "coordinates": [ 136.9920516, 34.9840963 ] } },
{ "type": "Feature", "properties": { "id": "node/5116644298", "amenity": "public_bath", "name": "旧 澄川温泉 たぬき湯" }, "geometry": { "type": "Point", "coordinates": [ 141.365842500000014, 43.0150896 ] } },
{ "type": "Feature", "properties": { "id": "node/5126103930", "amenity": "public_bath", "name": "烏帽子の湯" }, "geometry": { "type": "Point", "coordinates": [ 140.1632019, 38.0483481 ] } },
{ "type": "Feature", "properties": { "id": "node/5126103933", "amenity": "public_bath", "name": "とわの湯" }, "geometry": { "type": "Point", "coordinates": [ 140.1658174, 38.0471493 ] } },
{ "type": "Feature", "properties": { "id": "node/5126103940", "amenity": "public_bath", "name": "あずま湯" }, "geometry": { "type": "Point", "coordinates": [ 140.1700664, 38.046816 ] } },
{ "type": "Feature", "properties": { "id": "node/5152221957", "amenity": "public_bath", "name": "恐山温泉" }, "geometry": { "type": "Point", "coordinates": [ 141.089945699999987, 41.3277447 ] } },
{ "type": "Feature", "properties": { "id": "node/5157103345", "amenity": "public_bath", "bath:type": "onsen", "name": "万葉倶楽部" }, "geometry": { "type": "Point", "coordinates": [ 135.1807957, 34.6796819 ] } },
{ "type": "Feature", "properties": { "id": "node/5159215356", "amenity": "public_bath", "name": "龍美温泉" }, "geometry": { "type": "Point", "coordinates": [ 135.4713231, 34.6990314 ] } },
{ "type": "Feature", "properties": { "id": "node/5160875457", "amenity": "public_bath", "name": "帝国湯" }, "geometry": { "type": "Point", "coordinates": [ 139.7819321, 35.7019603 ] } },
{ "type": "Feature", "properties": { "id": "node/5170643737", "amenity": "public_bath", "bath:type": "onsen", "name": "上砂川岳温泉パンケの湯" }, "geometry": { "type": "Point", "coordinates": [ 142.021907, 43.465864 ] } },
{ "type": "Feature", "properties": { "id": "node/5185600521", "amenity": "public_bath", "bath:type": "onsen", "name": "仁左衛門の湯" }, "geometry": { "type": "Point", "coordinates": [ 135.687789, 34.9759721 ] } },
{ "type": "Feature", "properties": { "id": "node/5209728829", "amenity": "public_bath", "name": "茂庭温泉" }, "geometry": { "type": "Point", "coordinates": [ 140.8076801, 38.2118879 ] } },
{ "type": "Feature", "properties": { "id": "node/5210314123", "amenity": "public_bath", "name": "大湯" }, "geometry": { "type": "Point", "coordinates": [ 138.159792399999986, 36.3492773 ] } },
{ "type": "Feature", "properties": { "id": "node/5210657560", "amenity": "public_bath", "bath:type": "foot_bath", "name": null }, "geometry": { "type": "Point", "coordinates": [ 143.4223589, 43.7340886 ] } },
{ "type": "Feature", "properties": { "id": "node/5212852627", "amenity": "public_bath", "name": null }, "geometry": { "type": "Point", "coordinates": [ 135.7564748, 35.0163475 ] } },
{ "type": "Feature", "properties": { "id": "node/5212856571", "amenity": "public_bath", "bath:type": "onsen", "name": "Sakaya Donburi Yu Onsen Sauna" }, "geometry": { "type": "Point", "coordinates": [ 139.7987111, 35.7253693 ] } },
{ "type": "Feature", "properties": { "id": "node/5212887032", "amenity": "public_bath", "bath:type": "onsen", "name": "Guesthouse Tomoshibi Onsen" }, "geometry": { "type": "Point", "coordinates": [ 137.653219400000012, 36.1655364 ] } },
{ "type": "Feature", "properties": { "id": "node/5213112624", "amenity": "public_bath", "bath:type": "sento", "name": "ファミリー銭湯くさじま" }, "geometry": { "type": "Point", "coordinates": [ 137.2107998, 36.7463287 ] } },
{ "type": "Feature", "properties": { "id": "node/5224243525", "amenity": "public_bath", "bath:type": "hot_spring", "name": "昭和湯" }, "geometry": { "type": "Point", "coordinates": [ 135.516405, 34.7405807 ] } },
{ "type": "Feature", "properties": { "id": "node/5224275131", "amenity": "public_bath", "bath:type": "onsen", "name": "扇温泉" }, "geometry": { "type": "Point", "coordinates": [ 135.6258607, 34.7085668 ] } },
{ "type": "Feature", "properties": { "id": "node/5224296022", "amenity": "public_bath", "name": "引江湯" }, "geometry": { "type": "Point", "coordinates": [ 135.508683600000012, 34.7415971 ] } },
{ "type": "Feature", "properties": { "id": "node/5228389998", "amenity": "public_bath", "bath:type": "onsen", "name": "ふくの湯" }, "geometry": { "type": "Point", "coordinates": [ 139.756797, 35.7280855 ] } },
{ "type": "Feature", "properties": { "id": "node/5240302360", "amenity": "public_bath", "bath:type": "onsen", "name": "宮の湯" }, "geometry": { "type": "Point", "coordinates": [ 139.9932715, 35.6984842 ] } },
{ "type": "Feature", "properties": { "id": "node/5240302361", "amenity": "public_bath", "bath:type": "onsen", "name": "松の湯" }, "geometry": { "type": "Point", "coordinates": [ 139.9876763, 35.6953934 ] } },
{ "type": "Feature", "properties": { "id": "node/5246703490", "amenity": "public_bath", "name": "銭湯浪漫" }, "geometry": { "type": "Point", "coordinates": [ 139.5418728, 35.5126943 ] } },
{ "type": "Feature", "properties": { "id": "node/5252383787", "amenity": "public_bath", "name": "足湯おもかげ" }, "geometry": { "type": "Point", "coordinates": [ 137.5815073, 36.8176024 ] } },
{ "type": "Feature", "properties": { "id": "node/5255055623", "amenity": "public_bath", "name": "能登七見健康福祉の郷 なごみ" }, "geometry": { "type": "Point", "coordinates": [ 137.093729, 37.2664778 ] } },
{ "type": "Feature", "properties": { "id": "node/5255414316", "amenity": "public_bath", "name": "下呂温泉噴泉池" }, "geometry": { "type": "Point", "coordinates": [ 137.2408768, 35.8075858 ] } },
{ "type": "Feature", "properties": { "id": "node/5256788696", "amenity": "public_bath", "name": "天然温泉 ばってんの湯" }, "geometry": { "type": "Point", "coordinates": [ 129.7970774, 33.0930039 ] } },
{ "type": "Feature", "properties": { "id": "node/5262948482", "amenity": "public_bath", "name": "桜館" }, "geometry": { "type": "Point", "coordinates": [ 139.7032184, 35.5684999 ] } },
{ "type": "Feature", "properties": { "id": "node/5265005724", "amenity": "public_bath", "name": "神佛湯温泉" }, "geometry": { "type": "Point", "coordinates": [ 141.004653499999989, 43.1869269 ] } },
{ "type": "Feature", "properties": { "id": "node/5279265338", "amenity": "public_bath", "name": "天神の湯" }, "geometry": { "type": "Point", "coordinates": [ 135.620041, 34.8496729 ] } },
{ "type": "Feature", "properties": { "id": "node/5284765522", "amenity": "public_bath", "name": "市営日帰温泉 不老泉" }, "geometry": { "type": "Point", "coordinates": [ 131.500387499999988, 33.2770114 ] } },
{ "type": "Feature", "properties": { "id": "node/5288751558", "amenity": "public_bath", "name": "町営露天風呂;美女づくりの湯" }, "geometry": { "type": "Point", "coordinates": [ 138.118062900000012, 35.1746918 ] } },
{ "type": "Feature", "properties": { "id": "node/5289000729", "amenity": "public_bath", "name": "湯あそび広場森温泉" }, "geometry": { "type": "Point", "coordinates": [ 135.2931121, 34.7300921 ] } },
{ "type": "Feature", "properties": { "id": "node/5295227457", "amenity": "public_bath", "bath:type": "onsen", "name": "福光温泉" }, "geometry": { "type": "Point", "coordinates": [ 136.8341269, 36.4943661 ] } },
{ "type": "Feature", "properties": { "id": "node/5301549322", "amenity": "public_bath", "name": "トロン温泉稲荷湯" }, "geometry": { "type": "Point", "coordinates": [ 135.7466719, 35.0082018 ] } },
{ "type": "Feature", "properties": { "id": "node/5304395998", "amenity": "public_bath", "bath:type": "foot_bath", "name": "河原湯" }, "geometry": { "type": "Point", "coordinates": [ 138.9274039, 34.9705101 ] } },
{ "type": "Feature", "properties": { "id": "node/5306940697", "amenity": "public_bath", "name": "梅の湯" }, "geometry": { "type": "Point", "coordinates": [ 139.761504300000013, 35.7467314 ] } },
{ "type": "Feature", "properties": { "id": "node/5308507791", "amenity": "public_bath", "bath:type": "onsen", "name": "白岩の湯" }, "geometry": { "type": "Point", "coordinates": [ 138.9836521, 34.9646822 ] } },
{ "type": "Feature", "properties": { "id": "node/5309672765", "amenity": "public_bath", "bath:type": "onsen", "name": "小川温泉共同浴場" }, "geometry": { "type": "Point", "coordinates": [ 138.9791684, 34.9619782 ] } },
{ "type": "Feature", "properties": { "id": "node/5310036380", "amenity": "public_bath", "name": "宮下湯" }, "geometry": { "type": "Point", "coordinates": [ 139.73774, 35.7318745 ] } },
{ "type": "Feature", "properties": { "id": "node/5311813240", "amenity": "public_bath", "name": "御谷湯" }, "geometry": { "type": "Point", "coordinates": [ 139.8046453, 35.7014437 ] } },
{ "type": "Feature", "properties": { "id": "node/5318299644", "amenity": "public_bath", "name": "山口温泉;きらら289" }, "geometry": { "type": "Point", "coordinates": [ 139.542759499999988, 37.2219692 ] } },
{ "type": "Feature", "properties": { "id": "node/5319569012", "amenity": "public_bath", "bath:type": "onsen", "name": "Yukichichibu Onsen" }, "geometry": { "type": "Point", "coordinates": [ 140.59843, 42.8694714 ] } },
{ "type": "Feature", "properties": { "id": "node/5323155226", "amenity": "public_bath", "bath:type": "onsen", "name": "寺宝温泉" }, "geometry": { "type": "Point", "coordinates": [ 138.797464600000012, 37.4694063 ] } },
{ "type": "Feature", "properties": { "id": "node/5328850120", "amenity": "public_bath", "bath:type": "foot_bath", "name": "黒部浄化センター 足湯" }, "geometry": { "type": "Point", "coordinates": [ 137.428813, 36.8794408 ] } },
{ "type": "Feature", "properties": { "id": "node/5331506248", "amenity": "public_bath", "name": "一宮温泉まほろばの湯" }, "geometry": { "type": "Point", "coordinates": [ 134.6293274, 35.1837204 ] } },
{ "type": "Feature", "properties": { "id": "node/5332520552", "amenity": "public_bath", "bath:type": "onsen", "name": null }, "geometry": { "type": "Point", "coordinates": [ 142.8495519, 43.0739848 ] } },
{ "type": "Feature", "properties": { "id": "node/5340041148", "amenity": "public_bath", "name": "まさご湯" }, "geometry": { "type": "Point", "coordinates": [ 142.7606561, 42.176798 ] } },
{ "type": "Feature", "properties": { "id": "node/5346121775", "amenity": "public_bath", "bath:type": "onsen", "name": "岡山空港温泉;レスパール藤ヶ鳴" }, "geometry": { "type": "Point", "coordinates": [ 133.869862399999988, 34.7605464 ] } },
{ "type": "Feature", "properties": { "id": "node/5358442573", "amenity": "public_bath", "name": "龙泰洗浴" }, "geometry": { "type": "Point", "coordinates": [ 130.955609, 45.2897136 ] } },
{ "type": "Feature", "properties": { "id": "node/5358464518", "amenity": "public_bath", "name": "盛世桃源休闲会馆" }, "geometry": { "type": "Point", "coordinates": [ 130.956128, 45.290586 ] } },
{ "type": "Feature", "properties": { "id": "node/5358805415", "amenity": "public_bath", "name": "盛和养生沐浴" }, "geometry": { "type": "Point", "coordinates": [ 130.9573744, 45.2856507 ] } },
{ "type": "Feature", "properties": { "id": "node/5365955246", "amenity": "public_bath", "bath:type": "foot_bath", "name": "足湯 水神の松" }, "geometry": { "type": "Point", "coordinates": [ 137.6145326, 34.7673224 ] } },
{ "type": "Feature", "properties": { "id": "node/5372444421", "amenity": "public_bath", "name": "松ノ浜温泉" }, "geometry": { "type": "Point", "coordinates": [ 135.414125, 34.5099197 ] } },
{ "type": "Feature", "properties": { "id": "node/5376826598", "amenity": "public_bath", "name": "龙溪" }, "geometry": { "type": "Point", "coordinates": [ 130.9598811, 45.2855056 ] } },
{ "type": "Feature", "properties": { "id": "node/5376914376", "amenity": "public_bath", "name": "久山温泉 ホテル夢家" }, "geometry": { "type": "Point", "coordinates": [ 130.5190513, 33.6399907 ] } },
{ "type": "Feature", "properties": { "id": "node/5382045997", "amenity": "public_bath", "name": null }, "geometry": { "type": "Point", "coordinates": [ 130.840273, 45.3520258 ] } },
{ "type": "Feature", "properties": { "id": "node/5382440676", "amenity": "public_bath", "name": "唐代商务会馆" }, "geometry": { "type": "Point", "coordinates": [ 130.9731447, 45.2869956 ] } },
{ "type": "Feature", "properties": { "id": "node/5382440677", "amenity": "public_bath", "name": "秀水" }, "geometry": { "type": "Point", "coordinates": [ 130.972923900000012, 45.2864726 ] } },
{ "type": "Feature", "properties": { "id": "node/5387238298", "amenity": "public_bath", "name": "千歳湯" }, "geometry": { "type": "Point", "coordinates": [ 139.7619937, 35.733399 ] } },
{ "type": "Feature", "properties": { "id": "node/5387240861", "amenity": "public_bath", "name": "朝日湯" }, "geometry": { "type": "Point", "coordinates": [ 139.7644946, 35.7243985 ] } },
{ "type": "Feature", "properties": { "id": "node/5394676863", "amenity": "public_bath", "name": "晶鑫休闲浴馆" }, "geometry": { "type": "Point", "coordinates": [ 130.9610586, 45.2873067 ] } },
{ "type": "Feature", "properties": { "id": "node/5404432053", "amenity": "public_bath", "name": "がに湯" }, "geometry": { "type": "Point", "coordinates": [ 131.382616, 33.0689323 ] } },
{ "type": "Feature", "properties": { "id": "node/5404544257", "amenity": "public_bath", "name": "湯屋;天音" }, "geometry": { "type": "Point", "coordinates": [ 131.3542409, 33.0603191 ] } },
{ "type": "Feature", "properties": { "id": "node/5406775854", "amenity": "public_bath", "name": "藤乃湯" }, "geometry": { "type": "Point", "coordinates": [ 139.624300299999987, 35.7074629 ] } },
{ "type": "Feature", "properties": { "id": "node/5406948197", "amenity": "public_bath", "bath:type": "onsen", "name": "熊の川温泉郷" }, "geometry": { "type": "Point", "coordinates": [ 130.2405173, 33.3656623 ] } },
{ "type": "Feature", "properties": { "id": "node/5406948204", "amenity": "public_bath", "bath:type": "onsen", "name": "古湯温泉郷" }, "geometry": { "type": "Point", "coordinates": [ 130.2079794, 33.371769 ] } },
{ "type": "Feature", "properties": { "id": "node/5426227102", "amenity": "public_bath", "name": "双和浴池" }, "geometry": { "type": "Point", "coordinates": [ 130.963481699999988, 45.2902276 ] } },
{ "type": "Feature", "properties": { "id": "node/5436464257", "amenity": "public_bath", "name": "博大浴池" }, "geometry": { "type": "Point", "coordinates": [ 130.9814777, 45.2987295 ] } },
{ "type": "Feature", "properties": { "id": "node/5436853558", "amenity": "public_bath", "name": "鶴の湯" }, "geometry": { "type": "Point", "coordinates": [ 139.646543799999989, 35.6522725 ] } },
{ "type": "Feature", "properties": { "id": "node/5436880790", "amenity": "public_bath", "bath:type": "onsen", "name": null }, "geometry": { "type": "Point", "coordinates": [ 142.514947400000011, 44.4016096 ] } },
{ "type": "Feature", "properties": { "id": "node/5441387233", "amenity": "public_bath", "name": "新庄温泉" }, "geometry": { "type": "Point", "coordinates": [ 135.5181388, 34.7452416 ] } },
{ "type": "Feature", "properties": { "id": "node/5450922474", "amenity": "public_bath", "name": "金春湯(廃業)" }, "geometry": { "type": "Point", "coordinates": [ 139.732034199999987, 35.7300981 ] } },
{ "type": "Feature", "properties": { "id": "node/5450922476", "amenity": "public_bath", "name": "松の湯" }, "geometry": { "type": "Point", "coordinates": [ 139.7522061, 35.7365266 ] } },
{ "type": "Feature", "properties": { "id": "node/5456550204", "amenity": "public_bath", "name": "東照温泉" }, "geometry": { "type": "Point", "coordinates": [ 139.755649799999986, 36.7608468 ] } },
{ "type": "Feature", "properties": { "id": "node/5467069999", "amenity": "public_bath", "bath:type": "onsen", "name": "大浦温泉" }, "geometry": { "type": "Point", "coordinates": [ 130.4777072, 30.4574852 ] } },
{ "type": "Feature", "properties": { "id": "node/5468019821", "amenity": "public_bath", "name": "南青山;清水湯" }, "geometry": { "type": "Point", "coordinates": [ 139.7139823, 35.6660558 ] } },
{ "type": "Feature", "properties": { "id": "node/5468458333", "amenity": "public_bath", "name": "スーパー銭湯コール宇都宮" }, "geometry": { "type": "Point", "coordinates": [ 139.8855067, 36.5419988 ] } },
{ "type": "Feature", "properties": { "id": "node/5472500514", "amenity": "public_bath", "bath:type": "onsen", "name": "清風館" }, "geometry": { "type": "Point", "coordinates": [ 132.918967900000013, 34.215105 ] } },
{ "type": "Feature", "properties": { "id": "node/5472500516", "amenity": "public_bath", "name": "黄金湯" }, "geometry": { "type": "Point", "coordinates": [ 133.004759400000012, 34.0639043 ] } },
{ "type": "Feature", "properties": { "id": "node/5474337345", "amenity": "public_bath", "bath:type": "onsen", "name": "音戸温泉" }, "geometry": { "type": "Point", "coordinates": [ 132.4642575, 34.3883967 ] } },
{ "type": "Feature", "properties": { "id": "node/5474538427", "amenity": "public_bath", "name": "越の湯" }, "geometry": { "type": "Point", "coordinates": [ 139.683581299999986, 35.5543634 ] } },
{ "type": "Feature", "properties": { "id": "node/5474582380", "amenity": "public_bath", "name": "さくら湯" }, "geometry": { "type": "Point", "coordinates": [ 136.4515189, 36.4056329 ] } },
{ "type": "Feature", "properties": { "id": "node/5475588723", "amenity": "public_bath", "name": "小松湯" }, "geometry": { "type": "Point", "coordinates": [ 139.7122526, 35.741583 ] } },
{ "type": "Feature", "properties": { "id": "node/5484244727", "amenity": "public_bath", "name": "ことひら温泉 琴参閣" }, "geometry": { "type": "Point", "coordinates": [ 133.8171257, 34.190224 ] } },
{ "type": "Feature", "properties": { "id": "node/5487043981", "amenity": "public_bath", "name": "ニュー恵美須" }, "geometry": { "type": "Point", "coordinates": [ 139.7675865, 35.7434493 ] } },
{ "type": "Feature", "properties": { "id": "node/5491225153", "amenity": "public_bath", "name": "河鹿の湯" }, "geometry": { "type": "Point", "coordinates": [ 138.9238616, 34.8901865 ] } },
{ "type": "Feature", "properties": { "id": "node/5500232503", "amenity": "public_bath", "bath:type": "foot_bath", "name": "足湯　湯楽里（ゆらり）" }, "geometry": { "type": "Point", "coordinates": [ 136.905535, 37.3941209 ] } },
{ "type": "Feature", "properties": { "id": "node/5507536643", "amenity": "public_bath", "name": "境鉱泉" }, "geometry": { "type": "Point", "coordinates": [ 137.6088403, 36.9742103 ] } },
{ "type": "Feature", "properties": { "id": "node/5516198621", "amenity": "public_bath", "name": "韶山浴池" }, "geometry": { "type": "Point", "coordinates": [ 129.5720658, 44.5821621 ] } },
{ "type": "Feature", "properties": { "id": "node/5516198631", "amenity": "public_bath", "name": "铁路农场浴池" }, "geometry": { "type": "Point", "coordinates": [ 129.5704873, 44.5807595 ] } },
{ "type": "Feature", "properties": { "id": "node/5525112026", "amenity": "public_bath", "name": "平砂風呂" }, "geometry": { "type": "Point", "coordinates": [ 140.1037651, 36.0978537 ] } },
{ "type": "Feature", "properties": { "id": "node/5532642599", "amenity": "public_bath", "name": "ハイランドふらの" }, "geometry": { "type": "Point", "coordinates": [ 142.3402463, 43.3666177 ] } },
{ "type": "Feature", "properties": { "id": "node/5537870457", "amenity": "public_bath", "name": "田人おふくろの宿" }, "geometry": { "type": "Point", "coordinates": [ 140.661908899999986, 36.9413743 ] } },
{ "type": "Feature", "properties": { "id": "node/5551329023", "amenity": "public_bath", "name": "国民宿舎水郷;霞浦の湯" }, "geometry": { "type": "Point", "coordinates": [ 140.2202441, 36.0652388 ] } },
{ "type": "Feature", "properties": { "id": "node/5553711636", "amenity": "public_bath", "name": "皆様温泉" }, "geometry": { "type": "Point", "coordinates": [ 135.641686, 34.7348345 ] } },
{ "type": "Feature", "properties": { "id": "node/5576408468", "amenity": "public_bath", "name": "原鶴温泉" }, "geometry": { "type": "Point", "coordinates": [ 130.78125510000001, 33.3517315 ] } },
{ "type": "Feature", "properties": { "id": "node/5582101510", "amenity": "public_bath", "bath:type": "sento", "name": "福の湯(廃業)" }, "geometry": { "type": "Point", "coordinates": [ 139.3337548, 35.6615522 ] } },
{ "type": "Feature", "properties": { "id": "node/5593591182", "amenity": "public_bath", "name": "宝泉湯" }, "geometry": { "type": "Point", "coordinates": [ 139.78256780000001, 35.7222235 ] } },
{ "type": "Feature", "properties": { "id": "node/5594076124", "amenity": "public_bath", "name": "狭山市市民健康文化センター;サンパーク奥富" }, "geometry": { "type": "Point", "coordinates": [ 139.417295599999989, 35.879404 ] } },
{ "type": "Feature", "properties": { "id": "node/5600341310", "amenity": "public_bath", "bath:type": "onsen", "name": "鶴乃湯" }, "geometry": { "type": "Point", "coordinates": [ 131.4473628, 33.3121123 ] } },
{ "type": "Feature", "properties": { "id": "node/5601258722", "amenity": "public_bath", "name": "天狗湯" }, "geometry": { "type": "Point", "coordinates": [ 139.730246200000011, 35.5777633 ] } },
{ "type": "Feature", "properties": { "id": "node/5604667322", "amenity": "public_bath", "name": "湯ったり館" }, "geometry": { "type": "Point", "coordinates": [ 140.2505193, 35.9318072 ] } },
{ "type": "Feature", "properties": { "id": "node/5607598292", "amenity": "public_bath", "name": "花染の湯" }, "geometry": { "type": "Point", "coordinates": [ 141.0915971, 41.3283687 ] } },
{ "type": "Feature", "properties": { "id": "node/5607598302", "amenity": "public_bath", "name": "古滝の湯" }, "geometry": { "type": "Point", "coordinates": [ 141.089743700000014, 41.3276285 ] } },
{ "type": "Feature", "properties": { "id": "node/5607598303", "amenity": "public_bath", "name": "冷抜の湯" }, "geometry": { "type": "Point", "coordinates": [ 141.0897584, 41.3277533 ] } },
{ "type": "Feature", "properties": { "id": "node/5607598304", "amenity": "public_bath", "name": "薬師の湯" }, "geometry": { "type": "Point", "coordinates": [ 141.0902667, 41.3278299 ] } },
{ "type": "Feature", "properties": { "id": "node/5608462548", "amenity": "public_bath", "bath:type": "onsen", "name": "上士幌町健康増進センター;ふれあいプラザ" }, "geometry": { "type": "Point", "coordinates": [ 143.295048799999989, 43.2309459 ] } },
{ "type": "Feature", "properties": { "id": "node/5612703922", "amenity": "public_bath", "name": "栃窪温泉；あばれ井戸の湯" }, "geometry": { "type": "Point", "coordinates": [ 138.4359215, 37.2789931 ] } },
{ "type": "Feature", "properties": { "id": "node/5614927820", "amenity": "public_bath", "name": "東通村保健福祉センター;野花菖蒲の里" }, "geometry": { "type": "Point", "coordinates": [ 141.3377362, 41.2762997 ] } },
{ "type": "Feature", "properties": { "id": "node/5616962264", "amenity": "public_bath", "name": "丸屋玉ノ湯" }, "geometry": { "type": "Point", "coordinates": [ 136.8795031, 35.0101378 ] } },
{ "type": "Feature", "properties": { "id": "node/5625199013", "amenity": "public_bath", "bath:type": "onsen", "name": "ぽかぽかランド;鷹番の湯" }, "geometry": { "type": "Point", "coordinates": [ 139.6893763, 35.6298564 ] } },
{ "type": "Feature", "properties": { "id": "node/5629880529", "amenity": "public_bath", "bath:type": "onsen", "name": "道の尾温泉" }, "geometry": { "type": "Point", "coordinates": [ 129.8591276, 32.8025784 ] } },
{ "type": "Feature", "properties": { "id": "node/5632634835", "amenity": "public_bath", "name": "大鰐町地域交流センター;鰐come" }, "geometry": { "type": "Point", "coordinates": [ 140.5653553, 40.5207264 ] } },
{ "type": "Feature", "properties": { "id": "node/5643018464", "amenity": "public_bath", "name": "辨天湯" }, "geometry": { "type": "Point", "coordinates": [ 139.7849444, 35.6985061 ] } },
{ "type": "Feature", "properties": { "id": "node/5643283708", "amenity": "public_bath", "name": "おかめ湯" }, "geometry": { "type": "Point", "coordinates": [ 139.8209077, 35.7203522 ] } },
{ "type": "Feature", "properties": { "id": "node/5645109127", "amenity": "public_bath", "name": "三江浴池" }, "geometry": { "type": "Point", "coordinates": [ 130.9641729, 45.2967841 ] } },
{ "type": "Feature", "properties": { "id": "node/5645448406", "amenity": "public_bath", "name": "千代の湯" }, "geometry": { "type": "Point", "coordinates": [ 139.759152699999987, 35.7486252 ] } },
{ "type": "Feature", "properties": { "id": "node/5645448457", "amenity": "public_bath", "name": "神田湯" }, "geometry": { "type": "Point", "coordinates": [ 139.7514787, 35.7512581 ] } },
{ "type": "Feature", "properties": { "id": "node/5657109124", "amenity": "public_bath", "name": "テイエム牧場温泉" }, "geometry": { "type": "Point", "coordinates": [ 130.758473900000013, 31.4213803 ] } },
{ "type": "Feature", "properties": { "id": "node/5659120822", "amenity": "public_bath", "name": "稚内天然温泉;港のゆ" }, "geometry": { "type": "Point", "coordinates": [ 141.676677500000011, 45.4080491 ] } },
{ "type": "Feature", "properties": { "id": "node/5661372316", "amenity": "public_bath", "name": "神中湯" }, "geometry": { "type": "Point", "coordinates": [ 135.5361924, 34.6612236 ] } },
{ "type": "Feature", "properties": { "id": "node/5675046171", "amenity": "public_bath", "bath:type": "onsen", "name": "軽井沢千ケ滝温泉（浴槽施設）" }, "geometry": { "type": "Point", "coordinates": [ 138.5838422, 36.3656428 ] } },
{ "type": "Feature", "properties": { "id": "node/5688127605", "amenity": "public_bath", "name": "桜成浴場センター" }, "geometry": { "type": "Point", "coordinates": [ 140.7363224, 41.7799329 ] } },
{ "type": "Feature", "properties": { "id": "node/5695922525", "amenity": "public_bath", "name": "盛和浴池" }, "geometry": { "type": "Point", "coordinates": [ 130.840001699999988, 45.353183 ] } },
{ "type": "Feature", "properties": { "id": "node/5698213112", "amenity": "public_bath", "bath:type": "onsen", "name": "大沢温泉旅館" }, "geometry": { "type": "Point", "coordinates": [ 141.1007248, 38.9873164 ] } },
{ "type": "Feature", "properties": { "id": "node/5698397074", "amenity": "public_bath", "name": "足湯跡" }, "geometry": { "type": "Point", "coordinates": [ 140.9790894, 40.5761699 ] } },
{ "type": "Feature", "properties": { "id": "node/5700001049", "amenity": "public_bath", "bath:type": "foot_bath", "name": null }, "geometry": { "type": "Point", "coordinates": [ 135.7940505, 33.9883486 ] } },
{ "type": "Feature", "properties": { "id": "node/5704347808", "amenity": "public_bath", "name": "藤沼温泉やまゆり荘" }, "geometry": { "type": "Point", "coordinates": [ 140.1908788, 37.3011098 ] } },
{ "type": "Feature", "properties": { "id": "node/5710742557", "amenity": "public_bath", "name": "Yunohana Chaya Shinzaemon no Yu 湯の花茶屋 新左衛門の湯" }, "geometry": { "type": "Point", "coordinates": [ 140.3951248, 38.1646721 ] } },
{ "type": "Feature", "properties": { "id": "node/5712551856", "amenity": "public_bath", "name": "大曽根温泉 湯の城" }, "geometry": { "type": "Point", "coordinates": [ 136.933858, 35.187806 ] } },
{ "type": "Feature", "properties": { "id": "node/5721857790", "amenity": "public_bath", "bath:type": "Hot Spring", "name": "藤の湯" }, "geometry": { "type": "Point", "coordinates": [ 139.5185066, 35.6768081 ] } },
{ "type": "Feature", "properties": { "id": "node/5727041325", "amenity": "public_bath", "name": "臼別温泉 湯とぴあ臼別" }, "geometry": { "type": "Point", "coordinates": [ 139.918525100000011, 42.2296618 ] } },
{ "type": "Feature", "properties": { "id": "node/5727676687", "amenity": "public_bath", "name": "円山温泉" }, "geometry": { "type": "Point", "coordinates": [ 141.3243665, 43.049615 ] } },
{ "type": "Feature", "properties": { "id": "node/5730719295", "amenity": "public_bath", "name": "湯パーク ラヂウム" }, "geometry": { "type": "Point", "coordinates": [ 139.7340647, 35.8091125 ] } },
{ "type": "Feature", "properties": { "id": "node/5731412050", "amenity": "public_bath", "name": "宮城湯" }, "geometry": { "type": "Point", "coordinates": [ 139.7261756, 35.6114924 ] } },
{ "type": "Feature", "properties": { "id": "node/5731493848", "amenity": "public_bath", "name": "東上温泉" }, "geometry": { "type": "Point", "coordinates": [ 135.5292682, 34.6632814 ] } },
{ "type": "Feature", "properties": { "id": "node/5731784120", "amenity": "public_bath", "name": "川辺K温泉" }, "geometry": { "type": "Point", "coordinates": [ 130.3688411, 31.3861299 ] } },
{ "type": "Feature", "properties": { "id": "node/5731785721", "amenity": "public_bath", "name": "鏡石湯" }, "geometry": { "type": "Point", "coordinates": [ 130.4747232, 31.4369268 ] } },
{ "type": "Feature", "properties": { "id": "node/5738830979", "amenity": "public_bath", "name": "鶴の湯" }, "geometry": { "type": "Point", "coordinates": [ 139.8597713, 35.6833571 ] } },
{ "type": "Feature", "properties": { "id": "node/5738927855", "amenity": "public_bath", "name": "乙女湯 温泉" }, "geometry": { "type": "Point", "coordinates": [ 139.8690306, 35.6783726 ] } },
{ "type": "Feature", "properties": { "id": "node/5761038578", "amenity": "public_bath", "bath:type": "foot_bath", "name": "足湯 酒呑童子の湯" }, "geometry": { "type": "Point", "coordinates": [ 138.825031, 37.6628103 ] } },
{ "type": "Feature", "properties": { "id": "node/5762574461", "amenity": "public_bath", "name": "凯惠洗浴" }, "geometry": { "type": "Point", "coordinates": [ 130.9633859, 45.2799623 ] } },
{ "type": "Feature", "properties": { "id": "node/5762995036", "amenity": "public_bath", "name": "银河新概念洗浴" }, "geometry": { "type": "Point", "coordinates": [ 130.992654, 45.2929968 ] } },
{ "type": "Feature", "properties": { "id": "node/5774236065", "amenity": "public_bath", "name": "北府浴都" }, "geometry": { "type": "Point", "coordinates": [ 130.9742721, 45.3038836 ] } },
{ "type": "Feature", "properties": { "id": "node/5774643157", "amenity": "public_bath", "name": "武蔵湯" }, "geometry": { "type": "Point", "coordinates": [ 139.9326888, 35.7898105 ] } },
{ "type": "Feature", "properties": { "id": "node/5774713002", "amenity": "public_bath", "bath:type": "onsen", "name": "かたくりの湯" }, "geometry": { "type": "Point", "coordinates": [ 139.3869393, 35.762813 ] } },
{ "type": "Feature", "properties": { "id": "node/5775448851", "amenity": "public_bath", "name": "川場湯" }, "geometry": { "type": "Point", "coordinates": [ 139.666936, 35.7473267 ] } },
{ "type": "Feature", "properties": { "id": "node/5778988855", "amenity": "public_bath", "name": "北町浴場" }, "geometry": { "type": "Point", "coordinates": [ 139.6597157, 35.7674949 ] } },
{ "type": "Feature", "properties": { "id": "node/5788214897", "amenity": "public_bath", "name": "川湯温泉公衆浴場" }, "geometry": { "type": "Point", "coordinates": [ 144.435724, 43.6383131 ] } },
{ "type": "Feature", "properties": { "id": "node/5792314901", "amenity": "public_bath", "name": "富士乃湯" }, "geometry": { "type": "Point", "coordinates": [ 130.3451144, 31.3911088 ] } },
{ "type": "Feature", "properties": { "id": "node/5800160065", "amenity": "public_bath", "bath:type": "foot_bath", "name": null }, "geometry": { "type": "Point", "coordinates": [ 138.842370499999987, 36.5890145 ] } },
{ "type": "Feature", "properties": { "id": "node/5808518237", "amenity": "public_bath", "name": "松の湯" }, "geometry": { "type": "Point", "coordinates": [ 140.9709761, 42.3125016 ] } },
{ "type": "Feature", "properties": { "id": "node/5808630975", "amenity": "public_bath", "bath:type": "onsen", "name": "大黒湯" }, "geometry": { "type": "Point", "coordinates": [ 139.8136446, 35.7050199 ] } },
{ "type": "Feature", "properties": { "id": "node/5808899475", "amenity": "public_bath", "bath:type": "onsen", "name": null }, "geometry": { "type": "Point", "coordinates": [ 131.157315399999987, 33.0783716 ] } },
{ "type": "Feature", "properties": { "id": "node/5828139086", "amenity": "public_bath", "bath:type": "onsen", "name": "高天原温泉" }, "geometry": { "type": "Point", "coordinates": [ 137.5849213, 36.4454239 ] } },
{ "type": "Feature", "properties": { "id": "node/5829109250", "amenity": "public_bath", "name": "旭湯" }, "geometry": { "type": "Point", "coordinates": [ 139.8404367, 35.6744514 ] } },
{ "type": "Feature", "properties": { "id": "node/5831418537", "amenity": "public_bath", "name": "べんがら村" }, "geometry": { "type": "Point", "coordinates": [ 130.5663822, 33.2026389 ] } },
{ "type": "Feature", "properties": { "id": "node/5838232838", "amenity": "public_bath", "name": null }, "geometry": { "type": "Point", "coordinates": [ 139.83593350000001, 35.6825082 ] } },
{ "type": "Feature", "properties": { "id": "node/5841018340", "amenity": "public_bath", "name": "べにや" }, "geometry": { "type": "Point", "coordinates": [ 136.192508299999986, 36.2252864 ] } },
{ "type": "Feature", "properties": { "id": "node/5841701682", "amenity": "public_bath", "name": "宝湯" }, "geometry": { "type": "Point", "coordinates": [ 135.4836369, 34.7209159 ] } },
{ "type": "Feature", "properties": { "id": "node/5841776205", "amenity": "public_bath", "name": "潮湯（海水温浴施設）" }, "geometry": { "type": "Point", "coordinates": [ 133.210933899999986, 34.2796297 ] } },
{ "type": "Feature", "properties": { "id": "node/5842577165", "amenity": "public_bath", "name": null }, "geometry": { "type": "Point", "coordinates": [ 139.330182900000011, 35.8888542 ] } },
{ "type": "Feature", "properties": { "id": "node/5842961446", "amenity": "public_bath", "bath:type": "onsen", "name": "ヘルシーパーク裾野" }, "geometry": { "type": "Point", "coordinates": [ 138.871979, 35.2478444 ] } },
{ "type": "Feature", "properties": { "id": "node/5843368602", "amenity": "public_bath", "name": "温泉" }, "geometry": { "type": "Point", "coordinates": [ 140.037667, 37.1287594 ] } },
{ "type": "Feature", "properties": { "id": "node/5843441559", "amenity": "public_bath", "name": "川湯温泉足湯" }, "geometry": { "type": "Point", "coordinates": [ 144.435381, 43.6377624 ] } },
{ "type": "Feature", "properties": { "id": "node/5847479988", "amenity": "public_bath", "name": "阿波温泉やすらぎ館" }, "geometry": { "type": "Point", "coordinates": [ 134.1122829, 35.2358994 ] } },
{ "type": "Feature", "properties": { "id": "node/5851766773", "amenity": "public_bath", "name": null }, "geometry": { "type": "Point", "coordinates": [ 137.245207, 36.3075455 ] } },
{ "type": "Feature", "properties": { "id": "node/5858769258", "amenity": "public_bath", "name": "天下茶屋" }, "geometry": { "type": "Point", "coordinates": [ 139.2033497, 35.621617 ] } },
{ "type": "Feature", "properties": { "id": "node/5864957891", "amenity": "public_bath", "name": "おぶせ温泉;あけびの湯" }, "geometry": { "type": "Point", "coordinates": [ 138.327527, 36.6873016 ] } },
{ "type": "Feature", "properties": { "id": "node/5868593134", "amenity": "public_bath", "name": "花水木;せせらぎの湯" }, "geometry": { "type": "Point", "coordinates": [ 130.3601313, 31.6306095 ] } },
{ "type": "Feature", "properties": { "id": "node/5872452607", "amenity": "public_bath", "name": "湯トピア" }, "geometry": { "type": "Point", "coordinates": [ 135.8639919, 35.0097363 ] } },
{ "type": "Feature", "properties": { "id": "node/5873736280", "amenity": "public_bath", "name": "富士見温泉;ふれあい館" }, "geometry": { "type": "Point", "coordinates": [ 139.0936652, 36.4692703 ] } },
{ "type": "Feature", "properties": { "id": "node/5893977037", "amenity": "public_bath", "name": null }, "geometry": { "type": "Point", "coordinates": [ 133.8133185, 33.8904896 ] } },
{ "type": "Feature", "properties": { "id": "node/5894300022", "amenity": "public_bath", "bath:type": "onsen", "name": "三香温泉" }, "geometry": { "type": "Point", "coordinates": [ 144.3152052, 43.5739809 ] } },
{ "type": "Feature", "properties": { "id": "node/5894300023", "amenity": "public_bath", "bath:type": "onsen", "name": "和琴温泉" }, "geometry": { "type": "Point", "coordinates": [ 144.31259750000001, 43.5813196 ] } },
{ "type": "Feature", "properties": { "id": "node/5895683267", "amenity": "public_bath", "name": "田川の湯" }, "geometry": { "type": "Point", "coordinates": [ 138.203671, 36.629985 ] } },
{ "type": "Feature", "properties": { "id": "node/5901299589", "amenity": "public_bath", "name": "岩盤浴Sapa" }, "geometry": { "type": "Point", "coordinates": [ 132.7411816, 34.4260474 ] } },
{ "type": "Feature", "properties": { "id": "node/5905777755", "amenity": "public_bath", "name": "足湯こんばいろの湯" }, "geometry": { "type": "Point", "coordinates": [ 140.000262600000013, 37.097722 ] } },
{ "type": "Feature", "properties": { "id": "node/5905777768", "amenity": "public_bath", "name": "滝乃湯" }, "geometry": { "type": "Point", "coordinates": [ 140.00153, 37.0968855 ] } },
{ "type": "Feature", "properties": { "id": "node/5907862485", "amenity": "public_bath", "bath:type": "onsen", "name": "西武秩父駅前温泉;祭の湯" }, "geometry": { "type": "Point", "coordinates": [ 139.083931, 35.990729 ] } },
{ "type": "Feature", "properties": { "id": "node/5915584086", "amenity": "public_bath", "bath:type": "onsen", "name": "吹上露天の湯" }, "geometry": { "type": "Point", "coordinates": [ 142.6372595, 43.4297364 ] } },
{ "type": "Feature", "properties": { "id": "node/5916486408", "amenity": "public_bath", "bath:type": "onsen", "name": "道の駅両神温泉;薬師の湯" }, "geometry": { "type": "Point", "coordinates": [ 138.9710225, 36.0048579 ] } },
{ "type": "Feature", "properties": { "id": "node/5919866556", "amenity": "public_bath", "name": "清水湾浴馆" }, "geometry": { "type": "Point", "coordinates": [ 130.9694528, 45.2261014 ] } },
{ "type": "Feature", "properties": { "id": "node/5925984885", "amenity": "public_bath", "bath:type": "foot_bath", "name": "洲本温泉・潮騒の湯　足湯" }, "geometry": { "type": "Point", "coordinates": [ 134.9005113, 34.340105 ] } },
{ "type": "Feature", "properties": { "id": "node/5930815696", "amenity": "public_bath", "bath:type": "onsen", "name": "熊の湯" }, "geometry": { "type": "Point", "coordinates": [ 145.1552268, 44.0320562 ] } },
{ "type": "Feature", "properties": { "id": "node/5933184386", "amenity": "public_bath", "name": "銭湯 まえだ湯" }, "geometry": { "type": "Point", "coordinates": [ 139.7069281, 35.7388613 ] } },
{ "type": "Feature", "properties": { "id": "node/5933649694", "amenity": "public_bath", "name": "幸福湯" }, "geometry": { "type": "Point", "coordinates": [ 130.5054787, 31.6708192 ] } },